[{
	"startDate": "2014-07-01",
	"endDate": "2014-09-22",
	"time": "",
	"name": "航海王One-Piece台灣特展~一起成為海賊王吧！",
	"place": "華山1914創意文化園區",
	"latitude": "25.043604",
	"longitude": "121.52906"
}, {
	"startDate": "2014-06-28",
	"endDate": "2014-09-01",
	"time": "",
	"name": "【韓國靈異事件 畢業旅行】恐懼心理體驗特展",
	"place": "國立臺灣科學教育館",
	"latitude": "25.095988",
	"longitude": "121.51601"
}, {
	"startDate": "2014-06-28",
	"endDate": "2014-08-31",
	"time": "",
	"name": "史努比 Snoopy 65週年巡迴特展",
	"place": "駁二藝術特區",
	"latitude": "22.620168",
	"longitude": "120.281814"
}, {
	"startDate": "2014-07-19",
	"endDate": "2014-07-20",
	"time": "",
	"name": "紙貓熊展 黑白雙熊公益認養特展 2014 復興SOGO",
	"place": "南投市中興新村",
	"latitude": "25.041449",
	"longitude": "121.543418"
}, {
	"startDate": "2014-06-20",
	"endDate": "2014-09-14",
	"time": "",
	"name": "Fun大吧！積木村",
	"place": "華山1914創意文化園區",
	"latitude": "25.043604",
	"longitude": "121.52906"
}, {
	"startDate": "2014-06-21",
	"endDate": "2014-09-14",
	"time": "",
	"name": "LINE 展覽 -「HERE WE ARE-LINE FRIENDS互動樂園」展覽 台北/台中",
	"place": "大台中國際會展中心",
	"latitude": "24.1162202",
	"longitude": "120.616507"
}, {
	"startDate": "2014-07-25",
	"endDate": "2014-10-31",
	"time": "",
	"name": "世界巧克力夢公園 主題樂園",
	"place": "淡水漁人碼頭",
	"latitude": "25.178453",
	"longitude": "121.419729"
}, {
	"startDate": "2014-07-05",
	"endDate": "2014-10-05",
	"time": "",
	"name": "德古拉傳奇－吸血鬼歷史與藝術大展",
	"place": "國立歷史博物館",
	"latitude": "25.03141",
	"longitude": "121.511179"
}, {
	"startDate": "2014-07-13",
	"endDate": "2014-08-17",
	"time": "",
	"name": "南投火車好多節 2014 小熊學校的夏日旅行",
	"place": "集集驛站（集集旅客服務中心）",
	"latitude": "23.81743",
	"longitude": "120.853915"
}, {
	"startDate": "2014-08-27",
	"endDate": "2014-08-27",
	"time": "",
	"name": "破銅爛鐵 2014 台北 STOMP",
	"place": "兩廳院國家戲劇院",
	"latitude": "25.036731",
	"longitude": "121.519033"
}, {
	"startDate": "2014-05-31",
	"endDate": "2014-09-14",
	"time": "",
	"name": "《探險活寶－阿寶與老皮》特展",
	"place": "國立臺灣科學教育館",
	"latitude": "25.095988",
	"longitude": "121.51601"
}, {
	"startDate": "2014-07-05",
	"endDate": "2014-08-31",
	"time": "",
	"name": "【失戀博物館2】一個人快樂~來自全球創作者的感動作品",
	"place": "國立中正紀念堂",
	"latitude": "25.035915",
	"longitude": "121.51777"
}, {
	"startDate": "2014-06-28",
	"endDate": "2014-09-14",
	"time": "",
	"name": "百變Hello Kitty 40週年特展",
	"place": "松山文創園區（松山菸廠創意園區）",
	"latitude": "25.0437078",
	"longitude": "121.5593251"
}, {
	"startDate": "2014-06-25",
	"endDate": "2014-09-23",
	"time": "",
	"name": "【誠品信義】大型把噗裝置藝術展 2014",
	"place": "誠品信義旗艦店",
	"latitude": "25.039287",
	"longitude": "121.565831"
}, {
	"startDate": "2014-07-05",
	"endDate": "2014-09-21",
	"time": "",
	"name": "LIFE：看見生活 - 經典人生攝影展",
	"place": "松山文創園區（松山菸廠創意園區）",
	"latitude": "25.0437078",
	"longitude": "121.5593251"
}, {
	"startDate": "2014-07-19",
	"endDate": "2014-09-14",
	"time": "",
	"name": "2014青春 ▪ 未來影展 Youth Way-Light Film Festival",
	"place": "台北當代藝術館",
	"latitude": "25.050562",
	"longitude": "121.518874"
}, {
	"startDate": "2014-06-28",
	"endDate": "2014-08-31",
	"time": "",
	"name": "糟糕藝術博物館2014  Museum of Bad Art 台北/高雄",
	"place": "駁二藝術特區",
	"latitude": "22.620168",
	"longitude": "120.281814"
}, {
	"startDate": "2014-05-17",
	"endDate": "2014-08-03",
	"time": "",
	"name": "奇幻視界：國際科技藝術展2014",
	"place": "國立台灣美術館",
	"latitude": "24.141621",
	"longitude": "120.662111"
}, {
	"startDate": "2014-07-06",
	"endDate": "2014-07-06",
	"time": "",
	"name": "蘇打綠10週年世界巡迴演唱會2014 高雄最終場",
	"place": "台北小巨蛋",
	"latitude": "25.051259",
	"longitude": "121.54956"
}, {
	"startDate": "2014-10-17",
	"endDate": "2014-10-17",
	"time": "",
	"name": "日月潭國際花火音樂暨自行車嘉年華 2014",
	"place": "日月潭國家風景區",
	"latitude": "23.863918",
	"longitude": "120.907916"
}, {
	"startDate": "2014-06-29",
	"endDate": "2014-08-31",
	"time": "",
	"name": "青春校園插畫展「制服至上」",
	"place": "府中15新北市動畫故事館",
	"latitude": "25.009389",
	"longitude": "121.459618"
}, {
	"startDate": "2014-05-15",
	"endDate": "2014-09-21",
	"time": "",
	"name": "紅點傳達設計大獎 世界巡迴展：台北站",
	"place": "臺北紅點設計博物館",
	"latitude": "25.034757",
	"longitude": "121.53246"
}, {
	"startDate": "2014-07-01",
	"endDate": "2014-12-31",
	"time": "",
	"name": "365 天視覺藝術策劃",
	"place": "華山1914創意文化園區",
	"latitude": "25.043604",
	"longitude": "121.52906"
}, {
	"startDate": "2014-06-07",
	"endDate": "2014-09-14",
	"time": "",
	"name": "蠟筆小新特展 春日部大冒險 2014 台北/高雄",
	"place": "駁二藝術特區",
	"latitude": "22.620168",
	"longitude": "120.281814"
}, {
	"startDate": "2014-06-21",
	"endDate": "2014-08-10",
	"time": "",
	"name": "非常紙 Is it PAPER?",
	"place": "形而上畫廊",
	"latitude": "25.04099",
	"longitude": "121.549366"
}, {
	"startDate": "2014-08-16",
	"endDate": "2014-08-17",
	"time": "",
	"name": "神魔之塔格鬥X演唱會 2014",
	"place": "台北小巨蛋",
	"latitude": "25.051259",
	"longitude": "121.54956"
}, {
	"startDate": "2014-07-05",
	"endDate": "2014-09-08",
	"time": "",
	"name": "2014暑假強檔! 六福村野生動物大遷徙 全台最大動物標本特展",
	"place": "華山1914創意文化園區",
	"latitude": "25.043604",
	"longitude": "121.52906"
}, {
	"startDate": "2014-06-28",
	"endDate": "2014-07-29",
	"time": "",
	"name": "Girl Talk，Girl Stuff / 女孩插畫雙個展 - 台中巡迴場",
	"place": "ALLO Friend（Café , Exhibition）",
	"latitude": "24.141923",
	"longitude": "120.658794"
}, {
	"startDate": "2014-08-09",
	"endDate": "2014-08-09",
	"time": "",
	"name": "張懸個人專場演出 2014 無歌單 北中南巡演",
	"place": "台北國際會議中心",
	"latitude": "25.033248",
	"longitude": "121.560484"
}, {
	"startDate": "2014-07-19",
	"endDate": "2014-08-03",
	"time": "",
	"name": "《16個夏天-紀錄．愛特展》",
	"place": "華山1914創意文化園區",
	"latitude": "25.043604",
	"longitude": "121.52906"
}, {
	"startDate": "2014-05-30",
	"endDate": "2014-08-10",
	"time": "",
	"name": "2014臺灣國際熱氣球嘉年華 台東鹿野高台",
	"place": "鹿野高台",
	"latitude": "22.913383",
	"longitude": "121.119628"
}, {
	"startDate": "2014-07-31",
	"endDate": "2014-08-04",
	"time": "",
	"name": "第二屆華文朗讀節 2014",
	"place": "華山1914創意文化園區",
	"latitude": "25.043604",
	"longitude": "121.52906"
}, {
	"startDate": "2014-07-14",
	"endDate": "2014-07-27",
	"time": "",
	"name": "新北市兒童藝術節 2014",
	"place": "板橋435藝文特區",
	"latitude": "25.024041",
	"longitude": "121.452319"
}, {
	"startDate": "2014-11-15",
	"endDate": "2014-11-15",
	"time": "",
	"name": "2014 Sweets Run 甜蜜路跑",
	"place": "花博公園",
	"latitude": "25.0690107",
	"longitude": "121.52317"
}, {
	"startDate": "2014-06-28",
	"endDate": "2014-08-31",
	"time": "",
	"name": "義大遊樂世界 暑假限定鬼屋 2014 鬼有4",
	"place": "義大遊樂世界",
	"latitude": "23.0108714",
	"longitude": "120.6660044"
}, {
	"startDate": "2014-03-29",
	"endDate": "2014-08-31",
	"time": "",
	"name": "東西好文創市集",
	"place": "松山文創園區（松山菸廠創意園區）",
	"latitude": "25.0437078",
	"longitude": "121.5593251"
}, {
	"startDate": "2014-12-21",
	"endDate": "2014-12-21",
	"time": "",
	"name": "台北富邦馬拉松2014",
	"place": "市政府前廣場",
	"latitude": "25.037498",
	"longitude": "121.565352"
}, {
	"startDate": "2014-09-11",
	"endDate": "2014-09-28",
	"time": "",
	"name": "歌劇魅影全本音樂劇 2014",
	"place": "台北小巨蛋",
	"latitude": "25.051259",
	"longitude": "121.54956"
}, {
	"startDate": "2014-07-19",
	"endDate": "2014-07-19",
	"time": "",
	"name": "S.H.E 2GETHER 4EVER 世界巡迴演唱會安可場",
	"place": "高雄綜合體育館（高雄巨蛋）；高雄市左營區博愛二路757號",
	"latitude": "25.051259",
	"longitude": "121.54956"
}, {
	"startDate": "2010-01-31",
	"endDate": "2015-12-31",
	"time": "",
	"name": "【台博館】古生物大展-生命的史詩與演化共舞",
	"place": "國立台灣博物館土銀展示館",
	"latitude": "25.04358",
	"longitude": "121.514193"
}, {
	"startDate": "2014-06-28",
	"endDate": "2014-08-24",
	"time": "",
	"name": "蓋瑞‧貝斯曼台灣個展 2014 歡迎來我家",
	"place": "台北當代藝術館",
	"latitude": "25.050562",
	"longitude": "121.518874"
}, {
	"startDate": "2014-06-14",
	"endDate": "2014-09-14",
	"time": "",
	"name": "跳跳馬30周年大展 Rody Land 2014 台北/高雄",
	"place": "駁二藝術特區",
	"latitude": "22.620168",
	"longitude": "120.281814"
}, {
	"startDate": "2014-07-05",
	"endDate": "2014-10-07",
	"time": "",
	"name": "溪頭妖怪村密室逃脫 in 高雄",
	"place": "大統百貨和平店",
	"latitude": "22.630882",
	"longitude": "120.317951"
}, {
	"startDate": "2014-07-20",
	"endDate": "2014-08-20",
	"time": "",
	"name": "女孩告別誓插畫聯展",
	"place": "安和65",
	"latitude": "25.037321",
	"longitude": "121.551818"
}, {
	"startDate": "2014-07-04",
	"endDate": "2014-08-31",
	"time": "",
	"name": "超犀利趴5 犀利啥小趴 演唱會",
	"place": "松山文創園區（松山菸廠創意園區）",
	"latitude": "25.0437078",
	"longitude": "121.5593251"
}, {
	"startDate": "2014-07-27",
	"endDate": "2014-07-27",
	"time": "",
	"name": "粉樂町 台北東區當代藝術展 2014",
	"place": "台北文創大樓 6樓多功能廳",
	"latitude": "25.044615",
	"longitude": "121.561186"
}, {
	"startDate": "2014-05-16",
	"endDate": "2014-08-22",
	"time": "",
	"name": "向日葵花季 2014 太陽花",
	"place": "向陽農場",
	"latitude": "25.013587",
	"longitude": "121.115845"
}, {
	"startDate": "2014-08-31",
	"endDate": "2014-08-31",
	"time": "",
	"name": "迪士尼奇幻世界",
	"place": "新北市蘆洲功學社音樂廳",
	"latitude": "24.81738",
	"longitude": "120.964095"
}, {
	"startDate": "2014-07-25",
	"endDate": "2014-07-26",
	"time": "",
	"name": "海灘派對Hello beach - G's PIPE",
	"place": "PIPE Live Music",
	"latitude": "25.013286",
	"longitude": "121.530253"
}, {
	"startDate": "2014-08-02",
	"endDate": "2014-08-02",
	"time": "",
	"name": "月佬盃配對路跑賽2014",
	"place": "大佳河濱公園",
	"latitude": "25.0644067",
	"longitude": "121.5335659"
}, {
	"startDate": "2014-09-13",
	"endDate": "2014-09-13",
	"time": "",
	"name": "愛爾蘭踢踏舞劇 魔力之舞-風起雲湧",
	"place": "桃園縣政府文化局中壢藝術館",
	"latitude": "24.958126",
	"longitude": "121.227384"
}, {
	"startDate": "2014-06-23",
	"endDate": "2014-08-30",
	"time": "",
	"name": "荷蘭設計展 Dutch Design Exhibition",
	"place": "駁二藝術特區",
	"latitude": "22.620168",
	"longitude": "120.281814"
}, {
	"startDate": "2014-05-14",
	"endDate": "2014-09-14",
	"time": "",
	"name": "南北極特展—地球的盡頭",
	"place": "國立自然科學博物館",
	"latitude": "24.158447",
	"longitude": "120.667711"
}, {
	"startDate": "2014-09-06",
	"endDate": "2014-09-07",
	"time": "",
	"name": "搖滾臺中2014",
	"place": "台中文心森林公園暨圓滿戶外劇場",
	"latitude": "24.1471183",
	"longitude": "120.6084832"
}, {
	"startDate": "2014-06-28",
	"endDate": "2014-08-17",
	"time": "",
	"name": "桃園觀音蓮花季2014",
	"place": "桃園縣觀音鄉",
	"latitude": "25.0359365",
	"longitude": "121.1137544"
}, {
	"startDate": "2013-11-10",
	"endDate": "2014-10-31",
	"time": "",
	"name": "不朽的追求－威廉‧莫里斯特展",
	"place": "新北市立淡水古蹟博物館",
	"latitude": "25.174659",
	"longitude": "121.433386"
}, {
	"startDate": "2014-06-19",
	"endDate": "2014-07-29",
	"time": "",
	"name": "Anne-Flore Cabanis個展 空間界限",
	"place": "台北國際藝術村",
	"latitude": "25.046857",
	"longitude": "121.522299"
}, {
	"startDate": "2014-09-06",
	"endDate": "2014-09-06",
	"time": "",
	"name": "潑水盃比基尼路跑 運動美女選拔賽",
	"place": "美堤‧大佳公園",
	"latitude": "25.076622",
	"longitude": "121.559686"
}, {
	"startDate": "2014-07-27",
	"endDate": "2014-07-27",
	"time": "",
	"name": "印度寶萊塢音樂歌舞劇-泰姬特快車之戀",
	"place": "兩廳院國家戲劇院",
	"latitude": "25.036731",
	"longitude": "121.519033"
}, {
	"startDate": "2014-10-05",
	"endDate": "2014-10-05",
	"time": "",
	"name": "New Balance 動物園路跑賽2014",
	"place": "臺北市立動物園",
	"latitude": "24.998855",
	"longitude": "121.581069"
}, {
	"startDate": "2014-06-28",
	"endDate": "2014-08-31",
	"time": "",
	"name": "魔瓜藝術嘉年華 奇幻異想樂園 2014",
	"place": "香格里拉樂園",
	"latitude": "24",
	"longitude": "121"
}, {
	"startDate": "2013-12-07",
	"endDate": "2014-09-28",
	"time": "",
	"name": "【杉本博司Hiroshi Sugimoto-Time Exposed時光‧淬鍊‧影像】展覽",
	"place": "學學文創志業大樓",
	"latitude": "25.07819",
	"longitude": "121.56658"
}, {
	"startDate": "2014-07-01",
	"endDate": "2014-07-31",
	"time": "",
	"name": "藍森松攝影展 「Modeling」- An Honest Portrayal",
	"place": "法雅客台北信義新天地A9店",
	"latitude": "25.091075",
	"longitude": "121.5598345"
}, {
	"startDate": "2014-06-14",
	"endDate": "2014-09-14",
	"time": "",
	"name": "糖果夢公園2014",
	"place": "國立科學工藝博物館",
	"latitude": "22.640138",
	"longitude": "120.322579"
}, {
	"startDate": "2014-06-28",
	"endDate": "2014-08-31",
	"time": "",
	"name": "《傳藝陸拾陸夜2014》九尾狐、霹靂布袋戲",
	"place": "國立傳統藝術中心",
	"latitude": "24.685621",
	"longitude": "121.825244"
}, {
	"startDate": "2014-07-19",
	"endDate": "2014-07-19",
	"time": "",
	"name": "清境星空銀河季 2014 清境一夏",
	"place": "清境農場",
	"latitude": "24.056447",
	"longitude": "121.162722"
}, {
	"startDate": "2014-07-27",
	"endDate": "2014-07-27",
	"time": "",
	"name": "CNBLUE Can’t Stop 2014台北演唱會",
	"place": "台北世界貿易中心南港展覽館",
	"latitude": "25.056899",
	"longitude": "121.616904"
}, {
	"startDate": "2014-07-01",
	"endDate": "2014-07-27",
	"time": "",
	"name": "西門町後街文化祭2014『True Colors，什麼角「色」』",
	"place": "臺北市電影主題公園都市藝術方塊",
	"latitude": "25.044722",
	"longitude": "121.503137"
}, {
	"startDate": "2014-06-28",
	"endDate": "2014-08-10",
	"time": "",
	"name": "迷走歐洲 Vago Europa",
	"place": "么八二空間",
	"latitude": "22.997656",
	"longitude": "120.201318"
}, {
	"startDate": "2014-07-27",
	"endDate": "2014-07-27",
	"time": "",
	"name": "第二屆不插電音樂季 2014",
	"place": "新光三越百貨台中中港店",
	"latitude": "24.165412",
	"longitude": "120.643973"
}, {
	"startDate": "2014-07-05",
	"endDate": "2014-09-08",
	"time": "",
	"name": "花蓮紅面鴨系列活動 2014",
	"place": "花蓮鯉魚潭",
	"latitude": "23.928734",
	"longitude": "121.509906"
}, {
	"startDate": "2014-07-10",
	"endDate": "2014-07-11",
	"time": "",
	"name": "教育部補助 初階青年國際事務研習營",
	"place": "國立台灣師範大學公館校區",
	"latitude": "25.007015",
	"longitude": "121.534832"
}, {
	"startDate": "2014-07-26",
	"endDate": "2014-07-26",
	"time": "",
	"name": "永和仲夏夜之夢 奇幻旅程 2014",
	"place": "國立國父紀念館",
	"latitude": "25.040054",
	"longitude": "121.560039"
}, {
	"startDate": "2014-11-09",
	"endDate": "2014-11-09",
	"time": "",
	"name": "甜蜜台糖公益路跑活動",
	"place": "尖山埤江南渡假村",
	"latitude": "23.2806957",
	"longitude": "120.3550808"
}, {
	"startDate": "2014-07-31",
	"endDate": "2014-07-31",
	"time": "",
	"name": "《最後14堂星期二的課》2014感動加演",
	"place": "臺北市政大樓親子劇場",
	"latitude": "25.031705",
	"longitude": "121.544523"
}, {
	"startDate": "2014-02-22",
	"endDate": "2014-11-09",
	"time": "",
	"name": "「跟著線條去旅行」教育展",
	"place": "國立台灣美術館",
	"latitude": "24.141621",
	"longitude": "120.662111"
}, {
	"startDate": "2014-04-05",
	"endDate": "2014-12-27",
	"time": "",
	"name": "兒童週末派",
	"place": "臺北市大安區和平東路二段24號4樓",
	"latitude": "25.025774",
	"longitude": "121.543917"
}, {
	"startDate": "2014-07-26",
	"endDate": "2014-07-26",
	"time": "",
	"name": "桃園好客海洋音樂季 2014",
	"place": "桃園火車站前（暫定）",
	"latitude": "25.0448948",
	"longitude": "121.0757545"
}, {
	"startDate": "2014-08-02",
	"endDate": "2014-08-02",
	"time": "",
	"name": "情定大鵬灣2014-星空英雄馬拉松",
	"place": "大鵬灣",
	"latitude": "22.453761",
	"longitude": "120.476219"
}, {
	"startDate": "2014-05-18",
	"endDate": "2014-07-31",
	"time": "",
	"name": "竹子湖繡球花季2014",
	"place": "陽明山竹子湖",
	"latitude": "25.1363615",
	"longitude": "121.5027404"
}, {
	"startDate": "2014-08-04",
	"endDate": "2014-08-04",
	"time": "",
	"name": "魏如萱專輯發行巡演 2014 唱完小巨蛋,再唱《小混蛋巡迴》!",
	"place": "Legacy mini @ amba",
	"latitude": "25.04517",
	"longitude": "121.505568"
}, {
	"startDate": "2014-04-20",
	"endDate": "2014-07-31",
	"time": "",
	"name": "臺北攝影中心在撫臺-臺北城風情特展",
	"place": "撫臺街洋樓",
	"latitude": "25.046713",
	"longitude": "121.510806"
}, {
	"startDate": "2014-06-30",
	"endDate": "2014-09-30",
	"time": "",
	"name": "太平洋翡翠灣 鉅大國際大馬戲團 2014",
	"place": "太平洋翡翠灣溫泉渡假飯店",
	"latitude": "25.190315",
	"longitude": "121.681146"
}, {
	"startDate": "2014-06-28",
	"endDate": "2014-09-14",
	"time": "",
	"name": "霹靂奇幻武俠世界-布袋戲藝術大展",
	"place": "駁二藝術特區",
	"latitude": "22.620168",
	"longitude": "120.281814"
}, {
	"startDate": "2014-08-15",
	"endDate": "2014-09-28",
	"time": "",
	"name": "【火腿展覽】Oh~My雷蒂絲 ● Oh~My Lady+s ● 禹多田2014個展",
	"place": "火腿設計師藝廊",
	"latitude": "22.641696",
	"longitude": "120.293398"
}, {
	"startDate": "2014-07-26",
	"endDate": "2014-07-26",
	"time": "",
	"name": "戀愛通告「讓愛靠近」百萬型男VS俏麗女孩甜蜜晚宴",
	"place": "台北市中正區",
	"latitude": "25.0421407",
	"longitude": "121.5198716"
}, {
	"startDate": "2014-05-16",
	"endDate": "2014-09-28",
	"time": "",
	"name": "百年生活記憶系列展 叫賣臺灣味",
	"place": "國立台灣歷史博物館",
	"latitude": "23.058739",
	"longitude": "120.23208"
}, {
	"startDate": "2014-08-08",
	"endDate": "2014-08-08",
	"time": "",
	"name": "台灣首創【爆米花輕鬆劇場】果陀劇場－瘋狂辦公室狂想曲《五斗米靠腰》",
	"place": "新光三越台北信義新天地A11 6F文化館",
	"latitude": "25.0360141",
	"longitude": "121.5672349"
}, {
	"startDate": "2014-07-05",
	"endDate": "2014-08-31",
	"time": "",
	"name": "清境風車節 2014",
	"place": "清境農場",
	"latitude": "24.056447",
	"longitude": "121.162722"
}, {
	"startDate": "2014-08-01",
	"endDate": "2014-08-31",
	"time": "",
	"name": "【舞力全開5】全員回歸華麗舞秀 ALL IN最終章",
	"place": "全省首輪戲院",
	"latitude": "22.9806346",
	"longitude": "113.9407648"
}, {
	"startDate": "2014-08-22",
	"endDate": "2014-08-22",
	"time": "",
	"name": "板野友美台灣演唱會 2014",
	"place": "Legacy Taipei 傳 音樂展演空間",
	"latitude": "25.043604",
	"longitude": "121.52906"
}, {
	"startDate": "2013-11-19",
	"endDate": "2014-08-31",
	"time": "",
	"name": "解開昆蟲密碼特展～11月19日驚奇開展！",
	"place": "國立臺灣科學教育館",
	"latitude": "25.095988",
	"longitude": "121.51601"
}, {
	"startDate": "2014-06-06",
	"endDate": "2014-08-03",
	"time": "",
	"name": "走過半世紀 名家版畫展",
	"place": "家畫廊",
	"latitude": "25.0792018",
	"longitude": "121.5427093"
}, {
	"startDate": "2014-04-07",
	"endDate": "2014-09-29",
	"time": "",
	"name": "互動裝置創作 精靈的羽翼",
	"place": "樹火紀念紙博物館",
	"latitude": "25.048332",
	"longitude": "121.533613"
}, {
	"startDate": "2014-09-27",
	"endDate": "2014-09-27",
	"time": "",
	"name": "愛護動物比基尼路跑2014",
	"place": "大佳河濱公園",
	"latitude": "25.0644067",
	"longitude": "121.5335659"
}, {
	"startDate": "2014-08-01",
	"endDate": "2014-09-30",
	"time": "",
	"name": "宜蘭頭城搶孤民俗文化活動 2014",
	"place": "宜蘭縣頭城鎮",
	"latitude": "24.6929472",
	"longitude": "121.7195459"
}, {
	"startDate": "2014-06-28",
	"endDate": "2014-09-21",
	"time": "",
	"name": "幾分甜!? HOW SWEET !? - 人生況味展",
	"place": "駁二藝術特區",
	"latitude": "22.620168",
	"longitude": "120.281814"
}, {
	"startDate": "2014-08-02",
	"endDate": "2014-08-10",
	"time": "",
	"name": "台灣設計展2014",
	"place": "台東糖廠",
	"latitude": "22.7672177",
	"longitude": "121.1296494"
}, {
	"startDate": "2014-07-26",
	"endDate": "2014-07-26",
	"time": "",
	"name": "綠光劇團2014《八月，在我家》 台中/高雄加演",
	"place": "CROWN&amp;PT台中中山堂旗鑑店",
	"latitude": "24.155298",
	"longitude": "120.682756"
}, {
	"startDate": "2014-07-12",
	"endDate": "2014-07-12",
	"time": "",
	"name": "＜王文華×謝哲青×藍白拖＞逐夢講堂～免費參加！",
	"place": "逢甲大學-人言大樓B1啟垣廳",
	"latitude": "24.082589",
	"longitude": "120.558357"
}, {
	"startDate": "2014-10-19",
	"endDate": "2014-10-19",
	"time": "",
	"name": "公益路跑2014 Run To Love -Autumn",
	"place": "高雄夢時代購物中心",
	"latitude": "22.595275",
	"longitude": "120.307256"
}, {
	"startDate": "2014-07-19",
	"endDate": "2014-07-19",
	"time": "",
	"name": "夏季巧虎大型舞臺劇巡演 2014 博物館奇遇記",
	"place": " 臺南文化中心演藝廳（台南市中華東路3段332號） 　",
	"latitude": "0",
	"longitude": "0"
}, {
	"startDate": "2014-07-26",
	"endDate": "2014-07-27",
	"time": "",
	"name": "喝酒派對 這是一個喝酒的趴體 BEER IS GOOD",
	"place": "PIPE Live Music",
	"latitude": "25.013286",
	"longitude": "121.530253"
}, {
	"startDate": "2014-05-30",
	"endDate": "2014-07-27",
	"time": "",
	"name": "魔導少年主題展",
	"place": "高雄新光三越左營店",
	"latitude": "22.68325",
	"longitude": "120.304086"
}, {
	"startDate": "2014-07-09",
	"endDate": "2014-07-09",
	"time": "",
	"name": "2014網路e行銷全攻略課程",
	"place": "犇亞國際會議中心",
	"latitude": "25.052814",
	"longitude": "121.544376"
}, {
	"startDate": "2014-07-16",
	"endDate": "2014-07-27",
	"time": "",
	"name": "兒童藝術創作體驗營",
	"place": "鳳甲美術館",
	"latitude": "25.126384",
	"longitude": "121.498596"
}, {
	"startDate": "2014-06-06",
	"endDate": "2014-08-31",
	"time": "",
	"name": "國際攝影展2014 繽紛女聲",
	"place": "蕭壠文化園區",
	"latitude": "23.165861",
	"longitude": "120.17042"
}, {
	"startDate": "2014-10-26",
	"endDate": "2014-10-26",
	"time": "",
	"name": "艋舺盃全國馬拉松 2014",
	"place": "萬華區",
	"latitude": "25.0262857",
	"longitude": "121.4970294"
}, {
	"startDate": "2014-07-19",
	"endDate": "2014-08-03",
	"time": "",
	"name": "宜蘭國際樂活節2014",
	"place": "宜蘭市中山國小",
	"latitude": "24.753836",
	"longitude": "121.754283"
}, {
	"startDate": "2014-07-05",
	"endDate": "2014-07-27",
	"time": "",
	"name": "彩虹年代：台灣同志文學展",
	"place": "紀州庵文學森林",
	"latitude": "25.0213573",
	"longitude": "121.5203343"
}, {
	"startDate": "2014-07-25",
	"endDate": "2014-08-11",
	"time": "",
	"name": "星際大戰：反抗軍訓練基地",
	"place": "台中中友百貨",
	"latitude": "24.152073",
	"longitude": "120.684754"
}, {
	"startDate": "2014-08-02",
	"endDate": "2014-08-02",
	"time": "",
	"name": "情夕台灣演唱會",
	"place": "高雄世運主場館",
	"latitude": "22.702608",
	"longitude": "120.294739"
}, {
	"startDate": "2014-09-12",
	"endDate": "2014-09-14",
	"time": "",
	"name": "巨獸搖滾音樂祭4.0 BeastieRock 2014",
	"place": "淡水文化園區",
	"latitude": "25.166019",
	"longitude": "121.446995"
}, {
	"startDate": "2014-07-01",
	"endDate": "2014-09-30",
	"time": "",
	"name": "動畫創作小衛星展 是誰偷了我的便便！",
	"place": "駁二藝術特區",
	"latitude": "22.620168",
	"longitude": "120.281814"
}, {
	"startDate": "2014-11-01",
	"endDate": "2014-11-01",
	"time": "",
	"name": "太魯閣峽谷馬拉松2014",
	"place": "太魯閣國家公園",
	"latitude": "24.179872",
	"longitude": "121.307702"
}, {
	"startDate": "2014-06-23",
	"endDate": "2014-10-31",
	"time": "",
	"name": "「大漠英雄-成吉思汗紀念展」",
	"place": "國家文官學院",
	"latitude": "25.0526808",
	"longitude": "121.6136923"
}, {
	"startDate": "2014-04-01",
	"endDate": "2014-12-31",
	"time": "",
	"name": "心之芳庭假日主題小市集 召募中!",
	"place": "心之芳庭",
	"latitude": "24.1715221",
	"longitude": "120.7637298"
}, {
	"startDate": "2014-10-04",
	"endDate": "2014-10-05",
	"time": "",
	"name": "大彩虹音樂節 2014",
	"place": "真愛碼頭",
	"latitude": "22.620237",
	"longitude": "120.289642"
}, {
	"startDate": "2014-07-01",
	"endDate": "2014-09-28",
	"time": "",
	"name": "當代藝偶特展 皮諾丘的奇幻異境",
	"place": "台北偶戲館",
	"latitude": "25.047158",
	"longitude": "121.562074"
}, {
	"startDate": "2014-07-27",
	"endDate": "2014-07-27",
	"time": "",
	"name": "扭蛋路跑 Run Run Run",
	"place": "美堤河濱公園",
	"latitude": "25.0755213",
	"longitude": "121.5526993"
}, {
	"startDate": "2014-09-19",
	"endDate": "2014-10-18",
	"time": "",
	"name": "【移動迷宮】挑戰比飢餓遊戲更加嚴酷的關卡",
	"place": "全省首輪戲院",
	"latitude": "22.9806346",
	"longitude": "113.9407648"
}, {
	"startDate": "2014-08-26",
	"endDate": "2014-08-26",
	"time": "",
	"name": "艾麗高登Ellie Goulding  2014台北演唱會",
	"place": "ATTSHOWBOX",
	"latitude": "25.035615",
	"longitude": "121.566131"
}, {
	"startDate": "2012-01-01",
	"endDate": "2015-12-31",
	"time": "",
	"name": "一對一超意識催眠溝通",
	"place": "潛能密碼心靈科學中心",
	"latitude": "25.046355",
	"longitude": "121.515847"
}, {
	"startDate": "2014-07-05",
	"endDate": "2014-09-07",
	"time": "",
	"name": "洪乙丹創作個展【黑洞漫遊】",
	"place": "金車文藝中心台北館",
	"latitude": "25.052287",
	"longitude": "121.527956"
}, {
	"startDate": "2014-07-18",
	"endDate": "2014-08-17",
	"time": "",
	"name": "【我的極品前男友】今年夏天最浪漫的真心告白",
	"place": "全省首輪戲院",
	"latitude": "22.9806346",
	"longitude": "113.9407648"
}, {
	"startDate": "2011-07-01",
	"endDate": "2016-07-01",
	"time": "",
	"name": "【國立臺灣科學教育館】亞洲第一．空中腳踏車",
	"place": "國立臺灣科學教育館",
	"latitude": "25.095988",
	"longitude": "121.51601"
}, {
	"startDate": "2014-08-24",
	"endDate": "2014-08-24",
	"time": "",
	"name": "倉木麻衣 Live Project 2014 BEST Premium in Taiwan",
	"place": "Neo Studio",
	"latitude": "25.0356348",
	"longitude": "121.5678332"
}, {
	"startDate": "2014-07-25",
	"endDate": "2014-09-07",
	"time": "",
	"name": "廣川泰士攝影展「Timescapes 時‧景」",
	"place": "1839當代藝廊",
	"latitude": "25.040406",
	"longitude": "121.554593"
}, {
	"startDate": "2014-08-22",
	"endDate": "2014-09-21",
	"time": "",
	"name": "【哪啊哪啊 ~ 神去村】宮崎駿感心推薦，狂掃日本、台灣文壇與書市",
	"place": "全省首輪戲院",
	"latitude": "22.9806346",
	"longitude": "113.9407648"
}, {
	"startDate": "2014-10-10",
	"endDate": "2014-10-10",
	"time": "",
	"name": "綠光劇團《人間條件六》",
	"place": "國家戲劇院",
	"latitude": "25.035022",
	"longitude": "121.517743"
}, {
	"startDate": "2014-07-18",
	"endDate": "2014-08-31",
	"time": "",
	"name": "S.S.S.先生的邀請「奶油頭的烘蛋冒險」－薛邵瑄插畫故事創作展",
	"place": "高雄市鳳山區",
	"latitude": "22.6113591",
	"longitude": "120.3493158"
}, {
	"startDate": "2014-07-04",
	"endDate": "2014-10-26",
	"time": "",
	"name": "金瓜石神社與山神祭特展 2014",
	"place": "黃金博物園區（黃金博物館）",
	"latitude": "25.089065",
	"longitude": "121.837551"
}, {
	"startDate": "2014-07-02",
	"endDate": "2014-07-29",
	"time": "",
	"name": "郭定原風景攝影個展【海】",
	"place": "文水藝文中心─文水藝廊",
	"latitude": "25.052236",
	"longitude": "121.528461"
}, {
	"startDate": "2014-08-24",
	"endDate": "2014-08-24",
	"time": "",
	"name": "第十屆臺北踢踏節 2014",
	"place": "舞工廠舞團",
	"latitude": "25.105994",
	"longitude": "121.517367"
}, {
	"startDate": "2014-05-01",
	"endDate": "2014-08-03",
	"time": "",
	"name": "職人台灣特展",
	"place": "台灣設計館 金點區概念區",
	"latitude": "25.0437078",
	"longitude": "121.5593251"
}, {
	"startDate": "2014-07-19",
	"endDate": "2014-07-20",
	"time": "",
	"name": "暑期設計工作坊 2014 作夥LaDéSign",
	"place": "松山文創園區（松山菸廠創意園區）",
	"latitude": "25.0437078",
	"longitude": "121.5593251"
}, {
	"startDate": "2014-08-17",
	"endDate": "2014-08-17",
	"time": "",
	"name": "北投文物館─手作和菓子體驗課",
	"place": "北投文物館",
	"latitude": "25.138127",
	"longitude": "121.514714"
}, {
	"startDate": "2014-07-05",
	"endDate": "2014-08-24",
	"time": "",
	"name": "宜蘭國際童玩藝術節 2014",
	"place": "冬山河親水公園",
	"latitude": "24",
	"longitude": "121"
}, {
	"startDate": "2013-06-20",
	"endDate": "2014-09-26",
	"time": "",
	"name": "精緻手工咖啡教學- 輕鬆品味精品好咖啡",
	"place": "國語日報",
	"latitude": "25.029596",
	"longitude": "121.520157"
}, {
	"startDate": "2014-03-07",
	"endDate": "2014-08-30",
	"time": "",
	"name": "文化就在巷子裡 103年",
	"place": "台北市",
	"latitude": "25.091075",
	"longitude": "121.5598345"
}, {
	"startDate": "2014-10-19",
	"endDate": "2014-10-19",
	"time": "",
	"name": "Mizuno馬拉松接力賽2014",
	"place": "金山青年活動中心",
	"latitude": "25.226077",
	"longitude": "121.640931"
}, {
	"startDate": "2014-07-26",
	"endDate": "2014-07-26",
	"time": "",
	"name": "我的哈林年代2014巡迴演唱會 –台北場",
	"place": "台北小巨蛋",
	"latitude": "25.051259",
	"longitude": "121.54956"
}, {
	"startDate": "2014-08-01",
	"endDate": "2014-08-01",
	"time": "",
	"name": "大腦潛能開發“免費2.5訓練課程”",
	"place": "台北市",
	"latitude": "25.091075",
	"longitude": "121.5598345"
}, {
	"startDate": "2013-10-01",
	"endDate": "2014-08-31",
	"time": "",
	"name": "「星海奇航」太陽系小天體特展",
	"place": "南瀛天文教育園區",
	"latitude": "23.122453",
	"longitude": "120.391628"
}, {
	"startDate": "2014-09-13",
	"endDate": "2014-09-13",
	"time": "",
	"name": "夏川里美璀璨出道十五周年演唱會",
	"place": "台北國際會議中心大會堂",
	"latitude": "25.0287024",
	"longitude": "121.5769572"
}, {
	"startDate": "2014-05-31",
	"endDate": "2014-08-03",
	"time": "",
	"name": "壓抑的存在：塞爾維亞當代藝術",
	"place": "國立台灣美術館",
	"latitude": "24.141621",
	"longitude": "120.662111"
}, {
	"startDate": "2011-11-09",
	"endDate": "2014-11-08",
	"time": "",
	"name": "【世界宗教博物館】波斯拜火教：瑣羅亞斯德教",
	"place": "世界宗教博物館",
	"latitude": "25.007831",
	"longitude": "121.507502"
}, {
	"startDate": "2014-07-18",
	"endDate": "2014-08-22",
	"time": "",
	"name": "【in89豪讚會員月】破天荒辦卡不用錢‧50張電影票大方送‧回饋粉絲看《露西》！",
	"place": "in89豪華數位影城",
	"latitude": "25.0454595",
	"longitude": "121.5039696"
}, {
	"startDate": "2014-07-27",
	"endDate": "2014-07-27",
	"time": "",
	"name": "演歌歌王細川貴志2014出道40週年演唱會",
	"place": "台北國際會議中心",
	"latitude": "25.033248",
	"longitude": "121.560484"
}, {
	"startDate": "2014-06-20",
	"endDate": "2014-08-31",
	"time": "",
	"name": "植物手工藝品特展 植物原來這麼好玩",
	"place": "國立自然科學博物館",
	"latitude": "24.158447",
	"longitude": "120.667711"
}, {
	"startDate": "2014-08-02",
	"endDate": "2014-08-02",
	"time": "",
	"name": "LET’S RUN 空英1919陪讀路跑2014",
	"place": "美堤河濱公園",
	"latitude": "25.0755213",
	"longitude": "121.5526993"
}, {
	"startDate": "2014-07-26",
	"endDate": "2014-07-26",
	"time": "",
	"name": "愛八里U＆ME 2014 HIPHOP PARTY",
	"place": "八仙水上樂園",
	"latitude": "25.141831",
	"longitude": "121.387122"
}, {
	"startDate": "2014-07-05",
	"endDate": "2014-07-27",
	"time": "",
	"name": "【誠品生活】夢想把噗 系列課程",
	"place": "誠品信義旗艦店",
	"latitude": "25.039287",
	"longitude": "121.565831"
}, {
	"startDate": "2014-06-18",
	"endDate": "2014-08-31",
	"time": "",
	"name": "基隆鎖管季 2014",
	"place": "基隆八斗子漁港",
	"latitude": "24",
	"longitude": "121"
}, {
	"startDate": "2014-07-05",
	"endDate": "2014-08-31",
	"time": "",
	"name": "墾丁國際熱氣球嘉年華 2014",
	"place": "小墾丁渡假村",
	"latitude": "22.0266011",
	"longitude": "120.836261"
}, {
	"startDate": "2014-07-19",
	"endDate": "2014-07-28",
	"time": "",
	"name": "彈琴說愛",
	"place": "新光三越台北信義新天地A11 6F文化館",
	"latitude": "25.0360141",
	"longitude": "121.5672349"
}, {
	"startDate": "2014-07-05",
	"endDate": "2014-08-24",
	"time": "",
	"name": "“摩”幻異世界 廖蕙蘭插畫個展",
	"place": "小學校",
	"latitude": "25.06",
	"longitude": "121.25"
}, {
	"startDate": "2014-06-29",
	"endDate": "2014-07-27",
	"time": "",
	"name": "與畢卡索並駕齊驅的女性藝術家 2014與羅蘭珊相遇在典藏",
	"place": "典藏咖啡館長安店（典藏創意空間二區）",
	"latitude": "25.049463",
	"longitude": "121.522608"
}, {
	"startDate": "2014-06-14",
	"endDate": "2014-09-28",
	"time": "",
	"name": "第十九屆美濃黃蝶祭 2014",
	"place": "美濃客家文物館",
	"latitude": "22.909181",
	"longitude": "120.557646"
}, {
	"startDate": "2014-09-27",
	"endDate": "2014-09-27",
	"time": "",
	"name": "九歌兒童劇團2014年度公演《城市綠野仙蹤》",
	"place": "臺中市立葫蘆墩文化中心演奏廳",
	"latitude": "24.147695",
	"longitude": "120.686727"
}, {
	"startDate": "2014-05-31",
	"endDate": "2014-08-31",
	"time": "",
	"name": "新月遊435 夏日戶外系列活動2014",
	"place": "板橋四三五藝文特區",
	"latitude": "25.023396",
	"longitude": "121.454137"
}, {
	"startDate": "2014-06-27",
	"endDate": "2014-09-08",
	"time": "",
	"name": "數位藝術互動特展 蟲聲幻影",
	"place": "國立臺灣科學教育館",
	"latitude": "25.095988",
	"longitude": "121.51601"
}, {
	"startDate": "2014-08-02",
	"endDate": "2014-08-02",
	"time": "",
	"name": "週末龐客派對台灣巡迴 2014 HOLIDAY PUNK PARTY TAIWAN TOUR",
	"place": "TCRC獨立音樂展演吧",
	"latitude": "22.9971605",
	"longitude": "120.2002243"
}, {
	"startDate": "2014-06-01",
	"endDate": "2014-07-27",
	"time": "",
	"name": "蘋果核當代藝術聯展 2014",
	"place": "尊彩藝術中心",
	"latitude": "25.0773699",
	"longitude": "121.5727517"
}, {
	"startDate": "2013-12-08",
	"endDate": "2014-12-31",
	"time": "",
	"name": "五股溼地生態園區定點導覽",
	"place": "五股溼地生態園區",
	"latitude": "25.0888058",
	"longitude": "121.43419"
}, {
	"startDate": "2014-12-11",
	"endDate": "2014-12-14",
	"time": "",
	"name": "2014第26屆台北國際建築建材暨產品展",
	"place": "台北世界貿易中心展覽大樓（一館）",
	"latitude": "25.0332591",
	"longitude": "121.562324"
}, {
	"startDate": "2014-08-15",
	"endDate": "2014-08-15",
	"time": "",
	"name": "兩廳院夏日爵士派對2014－兩廳院夏日爵士節慶樂團",
	"place": "國家音樂廳",
	"latitude": "25.034961",
	"longitude": "121.518003"
}, {
	"startDate": "2014-08-22",
	"endDate": "2014-09-21",
	"time": "",
	"name": "【盲】2014柏林影展世界電影大觀單元 最佳歐洲電影",
	"place": "全省首輪戲院",
	"latitude": "22.9806346",
	"longitude": "113.9407648"
}, {
	"startDate": "2014-08-01",
	"endDate": "2014-08-01",
	"time": "",
	"name": "朱宗慶打擊樂團兒童音樂會2014－『豆莢寶寶 快樂巴士』",
	"place": "台北市社教館城市舞台",
	"latitude": "25.048332",
	"longitude": "121.551901"
}, {
	"startDate": "2014-11-09",
	"endDate": "2014-11-09",
	"time": "",
	"name": "台灣米倉田中馬拉松2014",
	"place": "田中鎮",
	"latitude": "23.8525401",
	"longitude": "120.5854674"
}, {
	"startDate": "2014-06-25",
	"endDate": "2014-07-29",
	"time": "",
	"name": "和風雅藝─日本著名書畫文物展 2014",
	"place": "長流美術館桃園館",
	"latitude": "25.054921",
	"longitude": "121.298909"
}, {
	"startDate": "2014-06-28",
	"endDate": "2014-08-24",
	"time": "",
	"name": "黃步青個展 2014 門外家園：荒蕪的邊緣",
	"place": "台北當代藝術館",
	"latitude": "25.050562",
	"longitude": "121.518874"
}, {
	"startDate": "2014-04-01",
	"endDate": "2014-08-31",
	"time": "",
	"name": "古畫動漫：明文徵明仿趙伯驌後赤壁圖",
	"place": "國立故宮博物院",
	"latitude": "25.134694",
	"longitude": "121.532443"
}, {
	"startDate": "2014-08-23",
	"endDate": "2014-08-23",
	"time": "",
	"name": "AIESEC-與世界一起 抓住臺灣真實的感動｜台灣之夜",
	"place": "高雄市",
	"latitude": "22.6251075",
	"longitude": "120.3089541"
}, {
	"startDate": "2014-08-09",
	"endDate": "2014-08-21",
	"time": "",
	"name": "“思路”焦子昀攝影展 ⼀一位十七歲高中女孩的志工之旅",
	"place": "恆昶藝廊",
	"latitude": "25.037324",
	"longitude": "121.556693"
}, {
	"startDate": "2014-09-28",
	"endDate": "2014-09-28",
	"time": "",
	"name": "桃園航空城國道馬拉松賽2014",
	"place": "桃園縣",
	"latitude": "24.9375874",
	"longitude": "121.2168466"
}, {
	"startDate": "2014-01-31",
	"endDate": "2014-12-31",
	"time": "",
	"name": "紅毛城‧歷史特展--淡水紅毛城的歷史與建築",
	"place": "淡水紅毛城",
	"latitude": "25.174659",
	"longitude": "121.433386"
}, {
	"startDate": "2014-08-02",
	"endDate": "2014-08-02",
	"time": "",
	"name": "優人神鼓2014─青年優人《早安》",
	"place": "新竹縣政府文化局演藝廳",
	"latitude": "25.035022",
	"longitude": "121.517743"
}, {
	"startDate": "2014-07-18",
	"endDate": "2014-08-24",
	"time": "",
	"name": "勇闖泥巴黑森林─ 2014 陶博館暑假活動",
	"place": "新北市立鶯歌陶瓷博物館",
	"latitude": "24.949339",
	"longitude": "121.352331"
}, {
	"startDate": "2013-12-27",
	"endDate": "2014-12-31",
	"time": "",
	"name": "《微觀世界》常設展",
	"place": "國立自然科學博物館",
	"latitude": "24.158447",
	"longitude": "120.667711"
}, {
	"startDate": "2014-07-03",
	"endDate": "2014-07-30",
	"time": "",
	"name": "薛美華展覽 靴子愛玩劇Ⅱ",
	"place": "寶藏巖國際藝術村",
	"latitude": "25.02036",
	"longitude": "121.525342"
}, {
	"startDate": "2014-08-29",
	"endDate": "2014-08-29",
	"time": "",
	"name": "特技空間城市首曲部「粉墨登場」",
	"place": "文山劇場",
	"latitude": "24.9918145",
	"longitude": "121.5413237"
}, {
	"startDate": "2014-01-01",
	"endDate": "2014-12-31",
	"time": "",
	"name": "衛武營藝術文化中心建築暨劇場常設展",
	"place": "衛武營藝術文化中心籌備處",
	"latitude": "24",
	"longitude": "121"
}, {
	"startDate": "2014-07-12",
	"endDate": "2014-07-12",
	"time": "",
	"name": "永安漁港 星繽樂狂歡嘉年華 2014",
	"place": "桃園縣新屋鄉永安漁港",
	"latitude": "24",
	"longitude": "121"
}, {
	"startDate": "2014-04-18",
	"endDate": "2014-10-27",
	"time": "",
	"name": "中正紀念堂的跨時代藍圖 凝視與對話",
	"place": "中正紀念堂 三樓 采玉藝廊",
	"latitude": "25.0346522",
	"longitude": "121.5218265"
}, {
	"startDate": "2014-09-13",
	"endDate": "2014-09-13",
	"time": "",
	"name": "軌跡之夜 亞洲巡迴台北場 2014 Falcom jdk BAND Asia Live tour",
	"place": "Legacy Taipei 傳 音樂展演空間",
	"latitude": "25.043604",
	"longitude": "121.52906"
}, {
	"startDate": "2014-07-26",
	"endDate": "2014-07-26",
	"time": "",
	"name": "【2014苗栗海洋觀光季】",
	"place": "苑港漁港",
	"latitude": "24.4098262",
	"longitude": "120.6775054"
}, {
	"startDate": "2014-05-31",
	"endDate": "2014-07-28",
	"time": "",
	"name": "無爲而無不爲：具本妸首次台灣個展",
	"place": "朝代畫廊",
	"latitude": "25.026839",
	"longitude": "121.551742"
}, {
	"startDate": "2014-08-16",
	"endDate": "2014-08-17",
	"time": "",
	"name": "TJ Hip Hop Party Forever90`s 2014",
	"place": "PIPE Live Music",
	"latitude": "25.013286",
	"longitude": "121.530253"
}, {
	"startDate": "2014-08-31",
	"endDate": "2014-08-31",
	"time": "",
	"name": "臺北藝穗節音樂祭2014",
	"place": "安和65",
	"latitude": "25.037321",
	"longitude": "121.551818"
}, {
	"startDate": "2014-10-26",
	"endDate": "2014-10-26",
	"time": "",
	"name": "貓空路跑『2014健康活力，運動臺北』",
	"place": "政治大學運動場",
	"latitude": "24.984863",
	"longitude": "121.574152"
}, {
	"startDate": "2014-10-17",
	"endDate": "2014-10-26",
	"time": "",
	"name": "全民大劇團《情人哏裡出西施》2014",
	"place": "台北市社教館城市舞台",
	"latitude": "25.0483418",
	"longitude": "121.5522472"
}, {
	"startDate": "2014-09-27",
	"endDate": "2014-10-26",
	"time": "",
	"name": "日本飛行船劇團-七隻小羊與大野狼",
	"place": "全台灣",
	"latitude": "23.973875",
	"longitude": "120.982024"
}, {
	"startDate": "2014-06-11",
	"endDate": "2014-07-27",
	"time": "",
	"name": "香草植物郵票與押花特展",
	"place": "郵政博物館6樓特展室",
	"latitude": "25.031731",
	"longitude": "121.514696"
}, {
	"startDate": "2014-07-27",
	"endDate": "2014-07-27",
	"time": "",
	"name": "【2014綠圈圈生活藝術祭】Design+設計小聚 藝術與設計應許的美好生活",
	"place": "台中全國大飯店",
	"latitude": "24.15365",
	"longitude": "120.663824"
}, {
	"startDate": "2014-10-19",
	"endDate": "2014-10-19",
	"time": "",
	"name": "2014台南秋季馬拉松 run FALL fun",
	"place": "烏山頭水庫風景區",
	"latitude": "23.2064519",
	"longitude": "120.3637277"
}, {
	"startDate": "2014-08-16",
	"endDate": "2014-08-16",
	"time": "",
	"name": "亞東劇團婚姻愛情劇 2014 [今夜不回家] [MSN之戀]",
	"place": "屏東縣政府文化處藝術館",
	"latitude": "22.78349",
	"longitude": "120.298633"
}, {
	"startDate": "2014-11-08",
	"endDate": "2014-11-08",
	"time": "",
	"name": "星光幸福夜跑 新莊站",
	"place": "新莊區",
	"latitude": "25.035848",
	"longitude": "121.450543"
}, {
	"startDate": "2014-08-09",
	"endDate": "2014-08-09",
	"time": "",
	"name": "Play Hard 02  舞池守護神",
	"place": "PIPE Live Music",
	"latitude": "25.013286",
	"longitude": "121.530253"
}, {
	"startDate": "2014-07-19",
	"endDate": "2014-08-17",
	"time": "",
	"name": "法蘭西的服/帽人生",
	"place": "索引文創",
	"latitude": "25.043708",
	"longitude": "121.559325"
}, {
	"startDate": "2014-08-02",
	"endDate": "2014-08-02",
	"time": "",
	"name": "刺青路跑 Tattoo Run",
	"place": "大佳河濱公園",
	"latitude": "25.0644067",
	"longitude": "121.5335659"
}, {
	"startDate": "2014-07-26",
	"endDate": "2014-07-26",
	"time": "",
	"name": "文 河 │2014.7月",
	"place": "甘樂文創",
	"latitude": "24.9344251",
	"longitude": "121.3725275"
}, {
	"startDate": "2014-07-27",
	"endDate": "2014-07-27",
	"time": "",
	"name": "陳德政《在遠方相遇Wish You Were Here》新書講座+音樂派對",
	"place": "誠品高雄遠百店",
	"latitude": "22.612916",
	"longitude": "120.301885"
}, {
	"startDate": "2014-07-12",
	"endDate": "2014-08-03",
	"time": "",
	"name": "《田園城市藝文空間》展訊 : 楊雅淳個人攝影展【PARK】 2014.07.12 - 08.03",
	"place": "田園城市藝文空間",
	"latitude": "25.05697",
	"longitude": "121.52234"
}, {
	"startDate": "2014-08-09",
	"endDate": "2014-08-09",
	"time": "",
	"name": "快樂寶貝起步“奏”《寶寶暢遊音樂王國》",
	"place": "國家音樂廳",
	"latitude": "25.034961",
	"longitude": "121.518003"
}, {
	"startDate": "2014-08-16",
	"endDate": "2014-08-16",
	"time": "",
	"name": "AIESEC-探索世界壹貳肆 創造感動無限次｜世界地球村博覽會",
	"place": "高雄市",
	"latitude": "22.6251075",
	"longitude": "120.3089541"
}, {
	"startDate": "2014-06-22",
	"endDate": "2014-08-31",
	"time": "",
	"name": "新秀展：【城市薄膜 】2014陳宗陽攝影展",
	"place": "帕莎蒂娜烘焙坊文化店",
	"latitude": "22.626956",
	"longitude": "120.319296"
}, {
	"startDate": "2014-07-19",
	"endDate": "2014-07-19",
	"time": "",
	"name": "【何嘉仁 親子DIY】從種子到餐桌 - 天然手作親子愛玉DIY",
	"place": "何嘉仁書店永和店",
	"latitude": "25.062624",
	"longitude": "121.533227"
}, {
	"startDate": "2014-07-05",
	"endDate": "2014-08-10",
	"time": "",
	"name": "兩岸青年藝術家在誠品︱拾荒花園",
	"place": "誠品畫廊",
	"latitude": "25.039357",
	"longitude": "121.565856"
}, {
	"startDate": "2014-07-18",
	"endDate": "2014-09-14",
	"time": "",
	"name": "蘇匯宇個展 此刻看見似是死亡的某種緩慢",
	"place": "國立臺北藝術大學關渡美術館",
	"latitude": "25.131342",
	"longitude": "121.466984"
}, {
	"startDate": "2014-08-03",
	"endDate": "2014-08-03",
	"time": "",
	"name": "Kids Music Garden年度音樂會2014─孩子的繪本地板音樂會",
	"place": "YAMAHA 研研中心演奏廳",
	"latitude": "25.052433",
	"longitude": "121.5650489"
}, {
	"startDate": "2014-06-27",
	"endDate": "2014-08-01",
	"time": "",
	"name": "品牌年代的美好競爭力：富錦樹",
	"place": "學學文創志業大樓",
	"latitude": "25.07819",
	"longitude": "121.56658"
}, {
	"startDate": "2014-10-25",
	"endDate": "2014-10-25",
	"time": "",
	"name": "支持多元成家2014 同志泡泡路跑",
	"place": "大佳河濱公園",
	"latitude": "25.0644067",
	"longitude": "121.5335659"
}, {
	"startDate": "2014-08-01",
	"endDate": "2014-08-02",
	"time": "",
	"name": "DJ BL3ND＠ATT SHOW BOX 2014",
	"place": "ATT Show Box",
	"latitude": "25.0356149",
	"longitude": "121.566131"
}, {
	"startDate": "2014-07-26",
	"endDate": "2014-07-27",
	"time": "",
	"name": "7/26～7/27 肌內效C級貼紮課程（台中場） ─ 07/18 報名截止",
	"place": "中山醫學大學附設醫院",
	"latitude": "24.121706",
	"longitude": "120.651371"
}, {
	"startDate": "2014-08-01",
	"endDate": "2014-08-31",
	"time": "",
	"name": "【無可避免愛上你】西班牙電影學院 最佳影片等 六項大獎提名",
	"place": "全省首輪戲院",
	"latitude": "22.9806346",
	"longitude": "113.9407648"
}, {
	"startDate": "2014-07-18",
	"endDate": "2014-08-17",
	"time": "",
	"name": "【白雪公主殺人事件】《告白》原作者湊佳苗最新暢銷小說作品改編電影",
	"place": "全省首輪戲院",
	"latitude": "22.9806346",
	"longitude": "113.9407648"
}, {
	"startDate": "2009-01-01",
	"endDate": "2014-12-31",
	"time": "",
	"name": "古蹟模型與寺廟文物展",
	"place": "高雄市立歷史博物館",
	"latitude": "22.626737",
	"longitude": "120.286883"
}, {
	"startDate": "2014-10-19",
	"endDate": "2014-10-19",
	"time": "",
	"name": "遠東新世紀盃全國馬拉松賽2014",
	"place": "新竹縣",
	"latitude": "24.7032806",
	"longitude": "121.1252135"
}, {
	"startDate": "2014-02-26",
	"endDate": "2014-09-15",
	"time": "",
	"name": "2014木頭亮起來-【木。時間-Wood of Time】木創聯展作品徵集中",
	"place": "木平台展覽空間",
	"latitude": "25.020418",
	"longitude": "121.526325"
}, {
	"startDate": "2014-10-02",
	"endDate": "2014-10-02",
	"time": "",
	"name": "國際劇場藝術節2014－莎士比亞環球劇院《仲夏夜之夢》",
	"place": "國家戲劇院",
	"latitude": "25.035022",
	"longitude": "121.517743"
}, {
	"startDate": "2014-04-27",
	"endDate": "2014-10-26",
	"time": "",
	"name": "新北市巷弄藝起來─微型演出巡演 2014",
	"place": "新北市",
	"latitude": "24.9157122",
	"longitude": "121.6739371"
}, {
	"startDate": "2014-06-15",
	"endDate": "2014-07-20",
	"time": "",
	"name": "【2014搖滾臺中】全國搖滾音樂大賽",
	"place": "場地請詳見活動資訊",
	"latitude": "24.1471183",
	"longitude": "120.6084832"
}, {
	"startDate": "2014-08-29",
	"endDate": "2014-09-09",
	"time": "",
	"name": "江家慶 2014九天衡─立體公仔創作個展",
	"place": "高雄市政府文化局（高雄市文化中心）",
	"latitude": "22.624661",
	"longitude": "120.318444"
}, {
	"startDate": "2014-09-09",
	"endDate": "2014-09-09",
	"time": "",
	"name": "2014臺北藝穗節首選－右邊有兔子劇團《夢遊練習曲》THE JOURNEY WITH/OUT YOU",
	"place": "小路上藝文空間",
	"latitude": "25.0261389",
	"longitude": "121.524454"
}, {
	"startDate": "2012-11-11",
	"endDate": "2015-12-31",
	"time": "",
	"name": "【科學工藝博物館】跨世紀對話－館史展",
	"place": "國立科學工藝博物館",
	"latitude": "22.640138",
	"longitude": "120.322579"
}, {
	"startDate": "2014-07-11",
	"endDate": "2014-08-10",
	"time": "",
	"name": "【名偵探柯南：異次元的狙擊手】紀念名偵探柯南連載20週年，主線劇情引人注目!",
	"place": "全省首輪戲院",
	"latitude": "22.9806346",
	"longitude": "113.9407648"
}, {
	"startDate": "2014-08-01",
	"endDate": "2014-08-01",
	"time": "",
	"name": "臺北藝術節2014《純情天婦羅》",
	"place": "臺北市中山堂中正廳",
	"latitude": "25.043204",
	"longitude": "121.510036"
}, {
	"startDate": "2014-11-22",
	"endDate": "2014-11-22",
	"time": "",
	"name": "GOLiFE 石門水庫國際路跑賽2014",
	"place": "石門水庫南苑停車場",
	"latitude": "24.816315",
	"longitude": "121.249161"
}, {
	"startDate": "2014-08-22",
	"endDate": "2014-08-22",
	"time": "",
	"name": "臺北藝術節2014《搞砸了》",
	"place": "水源劇場",
	"latitude": "25.0137429",
	"longitude": "121.535005"
}, {
	"startDate": "2014-07-14",
	"endDate": "2014-09-16",
	"time": "",
	"name": "皮件設計師養成班",
	"place": "學學文創志業大樓",
	"latitude": "25.07819",
	"longitude": "121.56658"
}, {
	"startDate": "2014-09-12",
	"endDate": "2014-10-11",
	"time": "",
	"name": "【怪怪箱】奧斯卡提名動畫製作團隊-萊卡動畫工作室最新力作",
	"place": "全省首輪戲院",
	"latitude": "22.9806346",
	"longitude": "113.9407648"
}, {
	"startDate": "2014-07-05",
	"endDate": "2014-08-09",
	"time": "",
	"name": "加力畫廊：【嫩天堂】",
	"place": "加力畫廊",
	"latitude": "22.992242",
	"longitude": "120.19527"
}, {
	"startDate": "2014-05-01",
	"endDate": "2014-10-12",
	"time": "",
	"name": "當代金工複合媒材創作藝術展 鍊金術",
	"place": "國立臺灣工藝研究發展中心（臺灣工藝文化園區）",
	"latitude": "23.980774",
	"longitude": "120.691856"
}, {
	"startDate": "2014-08-05",
	"endDate": "2014-08-05",
	"time": "",
	"name": "台大交響樂團─經典貝多芬",
	"place": "國立臺灣體育運動大學中興堂",
	"latitude": "24.145972",
	"longitude": "120.684864"
}, {
	"startDate": "2014-08-16",
	"endDate": "2014-08-16",
	"time": "",
	"name": "集集綠色隧道流星夜跑趴2014",
	"place": "集集綠色隧道",
	"latitude": "23.824848",
	"longitude": "120.763236"
}, {
	"startDate": "2014-09-27",
	"endDate": "2014-09-27",
	"time": "",
	"name": "麻豆文旦節2014－Run to 柚",
	"place": "詳情請見活動網站公佈",
	"latitude": "25.105841",
	"longitude": "121.522079"
}, {
	"startDate": "2014-05-16",
	"endDate": "2014-12-31",
	"time": "",
	"name": "《周夢蝶──孤獨國裡的一顆光彩靈魂》主題紀念展覽",
	"place": "誠品信義書店",
	"latitude": "25.0394505",
	"longitude": "121.5658175"
}, {
	"startDate": "2014-07-04",
	"endDate": "2014-08-03",
	"time": "",
	"name": "【Z風暴】2014深具層次的金融貪腐題材作品",
	"place": "全省首輪戲院",
	"latitude": "22.9806346",
	"longitude": "113.9407648"
}, {
	"startDate": "2014-09-28",
	"endDate": "2014-09-28",
	"time": "",
	"name": "2014 第七屆世界無障礙慈善路跑",
	"place": " 台北花博公園",
	"latitude": "25.0727",
	"longitude": "121.5231"
}, {
	"startDate": "2014-07-14",
	"endDate": "2014-07-17",
	"time": "",
	"name": "新北投71園區『藝起來FUN』系列活動 2014",
	"place": "新北投71園區",
	"latitude": "25.141381",
	"longitude": "121.502447"
}, {
	"startDate": "2014-07-26",
	"endDate": "2014-08-30",
	"time": "",
	"name": "翁明崖與翁明哲創作個展2014「寂靜的風景．夢幻的獸影」",
	"place": "沐之藝廊",
	"latitude": "24.8029414",
	"longitude": "120.9973867"
}, {
	"startDate": "2014-11-09",
	"endDate": "2014-11-09",
	"time": "",
	"name": "員林獅子盃全國路跑2014",
	"place": "員林鎮",
	"latitude": "23.959272",
	"longitude": "120.574589"
}, {
	"startDate": "2013-07-23",
	"endDate": "2014-07-31",
	"time": "",
	"name": "田村映二奇幻之旅特展",
	"place": "花蓮文化創意產業園區（原花蓮酒廠）",
	"latitude": "23.975154",
	"longitude": "121.599721"
}, {
	"startDate": "2011-01-01",
	"endDate": "2015-12-31",
	"time": "",
	"name": "三峽白雞-茶山房肥皂文化體驗館",
	"place": "茶山房肥皂文化體驗館",
	"latitude": "24.912304",
	"longitude": "121.384104"
}, {
	"startDate": "2014-08-08",
	"endDate": "2014-08-08",
	"time": "",
	"name": "小星星兒童劇團《小水滴的奇幻旅程》",
	"place": "文山劇場",
	"latitude": "24.9918145",
	"longitude": "121.5413237"
}, {
	"startDate": "2014-06-21",
	"endDate": "2014-09-21",
	"time": "",
	"name": "兩個港口的對話：台灣與北愛爾蘭交流展 聲語遶境",
	"place": "高雄市立美術館",
	"latitude": "22.656355",
	"longitude": "120.286546"
}, {
	"startDate": "2009-12-02",
	"endDate": "2014-12-31",
	"time": "",
	"name": "【RF】展示中心─壁爐、壁飾、TV遮掩保護裝置",
	"place": "台灣崇百企業有限公司",
	"latitude": "24.160413",
	"longitude": "120.573614"
}, {
	"startDate": "2014-10-18",
	"endDate": "2014-10-18",
	"time": "",
	"name": "愛要及時 為愛而跑",
	"place": "大佳河濱公園",
	"latitude": "25.0644067",
	"longitude": "121.5335659"
}, {
	"startDate": "2014-05-31",
	"endDate": "2014-07-31",
	"time": "",
	"name": "知音文創【來趣日月潭】特展",
	"place": "誠品信義書店",
	"latitude": "25.0394505",
	"longitude": "121.5658175"
}, {
	"startDate": "2014-08-01",
	"endDate": "2014-08-01",
	"time": "",
	"name": "全民大劇團《往事只能回味》（原名：短波）",
	"place": "國家戲劇院",
	"latitude": "25.035022",
	"longitude": "121.517743"
}, {
	"startDate": "2014-07-12",
	"endDate": "2014-07-29",
	"time": "",
	"name": "毓修的水彩畫 觸動",
	"place": "國立國父紀念館",
	"latitude": "25.040054",
	"longitude": "121.560039"
}, {
	"startDate": "2014-06-14",
	"endDate": "2014-09-28",
	"time": "",
	"name": "女人-家：以亞洲女性藝術之名",
	"place": "高雄市立美術館",
	"latitude": "22.656355",
	"longitude": "120.286546"
}, {
	"startDate": "2014-08-02",
	"endDate": "2014-08-10",
	"time": "",
	"name": "大崗山龍眼蜂蜜文化節2014-甜蜜一窩蜂",
	"place": "大崗山自然生態園區",
	"latitude": "22.841291",
	"longitude": "120.344931"
}, {
	"startDate": "2014-08-24",
	"endDate": "2014-08-24",
	"time": "",
	"name": "嘉里大榮環保綠色路跑賽2014",
	"place": "大佳河濱公園",
	"latitude": "25.0644067",
	"longitude": "121.5335659"
}, {
	"startDate": "2014-10-05",
	"endDate": "2014-10-05",
	"time": "",
	"name": "長庚紀念醫院永慶盃路跑活動",
	"place": "市政府前廣場",
	"latitude": "25.037498",
	"longitude": "121.565352"
}, {
	"startDate": "2014-09-20",
	"endDate": "2014-09-20",
	"time": "",
	"name": "星光幸福夜跑 林口站",
	"place": "林口區",
	"latitude": "25.077792",
	"longitude": "121.391173"
}, {
	"startDate": "2014-07-12",
	"endDate": "2014-08-31",
	"time": "",
	"name": "【「傑利小子 繪師 30ann」人物 .插圖 .漫畫微展覽】",
	"place": "丹寧象藝文中心（丹寧象藝文餐廳）",
	"latitude": "22.7534338",
	"longitude": "121.1548955"
}, {
	"startDate": "2014-10-12",
	"endDate": "2014-10-12",
	"time": "",
	"name": "旗津山海路跑賽2014",
	"place": "詳情請見活動網站公佈",
	"latitude": "25.105841",
	"longitude": "121.522079"
}, {
	"startDate": "2014-08-30",
	"endDate": "2014-08-30",
	"time": "",
	"name": "大台中愛樂管樂團團慶音樂會-VIVA",
	"place": "國立臺灣體育運動大學中興堂",
	"latitude": "24.145972",
	"longitude": "120.684864"
}, {
	"startDate": "2014-09-21",
	"endDate": "2014-09-21",
	"time": "",
	"name": "陽明山五指山越野賽2014SALOMON",
	"place": "士林區",
	"latitude": "25.0833",
	"longitude": "121.517"
}, {
	"startDate": "2014-05-03",
	"endDate": "2014-07-26",
	"time": "",
	"name": "中壢藝同遊藝 藝術下鄉巡演活動 2014",
	"place": "桃園縣中壢市",
	"latitude": "24.9721514",
	"longitude": "121.2053963"
}, {
	"startDate": "2014-08-02",
	"endDate": "2014-08-02",
	"time": "",
	"name": "1976成團18週年Live",
	"place": "TADA方舟藝文展演空間",
	"latitude": "24.132733",
	"longitude": "120.679643"
}, {
	"startDate": "2014-04-19",
	"endDate": "2014-10-31",
	"time": "",
	"name": "賞螢&夜間鐳戰特惠套裝行程",
	"place": "亞太生態園區",
	"latitude": "25.1016667",
	"longitude": "121.3630556"
}, {
	"startDate": "2014-07-18",
	"endDate": "2014-08-17",
	"time": "",
	"name": "【夏日淘寶】生活藝術跳蚤市場",
	"place": "雅逸藝術中心",
	"latitude": "25.115565",
	"longitude": "121.533032"
}, {
	"startDate": "2014-10-12",
	"endDate": "2014-10-12",
	"time": "",
	"name": "國醫盃慈善路跑賽2014",
	"place": "烏日高鐵站",
	"latitude": "24.111558",
	"longitude": "120.615855"
}, {
	"startDate": "2014-10-25",
	"endDate": "2014-10-26",
	"time": "",
	"name": "臺北國際牛肉麵節2014",
	"place": " 台北花博公園",
	"latitude": "25.0727",
	"longitude": "121.5231"
}, {
	"startDate": "2014-07-26",
	"endDate": "2014-08-03",
	"time": "",
	"name": "【鵲橋情緣．相會林園】2014霞海月老來新北市",
	"place": "林本源園邸",
	"latitude": "25.009755",
	"longitude": "121.454125"
}, {
	"startDate": "2014-11-16",
	"endDate": "2014-11-16",
	"time": "",
	"name": "日月潭環湖馬拉松2014",
	"place": "向山遊客中心",
	"latitude": "23.851145",
	"longitude": "120.902116"
}, {
	"startDate": "2014-07-25",
	"endDate": "2014-09-14",
	"time": "",
	"name": "運動之後－穆勒咖啡之夜",
	"place": "國立臺北藝術大學關渡美術館",
	"latitude": "25.131342",
	"longitude": "121.466984"
}, {
	"startDate": "2014-10-12",
	"endDate": "2014-10-12",
	"time": "",
	"name": "府城快樂馬拉松（半程）",
	"place": "安平區",
	"latitude": "23.000881",
	"longitude": "120.166633"
}, {
	"startDate": "2014-06-07",
	"endDate": "2014-08-31",
	"time": "",
	"name": "一見雙雕藝術季2014",
	"place": "馬沙溝濱海遊憩區",
	"latitude": "23.2054945",
	"longitude": "120.1011836"
}, {
	"startDate": "2014-08-02",
	"endDate": "2014-08-02",
	"time": "",
	"name": "台北室內芭蕾～第一天",
	"place": "臺南文化中心演藝廳",
	"latitude": "22.78349",
	"longitude": "120.298633"
}, {
	"startDate": "2014-08-15",
	"endDate": "2014-08-15",
	"time": "",
	"name": "歌劇工作坊2014《糖果屋》",
	"place": "國家戲劇院實驗劇場",
	"latitude": "25.0367564",
	"longitude": "121.519047"
}, {
	"startDate": "2014-09-11",
	"endDate": "2014-09-15",
	"time": "",
	"name": "台北國際美容化妝品展 秋冬場 2014",
	"place": "台北世貿一館",
	"latitude": "25.033264",
	"longitude": "121.561549"
}, {
	"startDate": "2014-04-05",
	"endDate": "2014-12-28",
	"time": "",
	"name": "勾勾纏 探索纖維藝術",
	"place": "高雄市立美術館",
	"latitude": "22.656355",
	"longitude": "120.286546"
}, {
	"startDate": "2014-07-12",
	"endDate": "2014-08-13",
	"time": "",
	"name": "陸先銘個展【無聲之城：1984-2014年的臺北】",
	"place": "大未來林舍畫廊 Lin &amp; Lin Gallery",
	"latitude": "25.0359904",
	"longitude": "121.5444693"
}, {
	"startDate": "2014-07-15",
	"endDate": "2014-09-30",
	"time": "",
	"name": "員山生態教育館特展 「夏日森林─快樂夜貓子」陪你過暑假",
	"place": "員山生態教育館",
	"latitude": "24.739004",
	"longitude": "121.721002"
}, {
	"startDate": "2014-07-17",
	"endDate": "2014-08-26",
	"time": "",
	"name": "白錫石 創意打包帶童玩展 暨 工作坊 2014",
	"place": "桃園展演中心",
	"latitude": "25.017473",
	"longitude": "121.298601"
}, {
	"startDate": "2014-07-27",
	"endDate": "2014-07-27",
	"time": "",
	"name": "思想起－倒立吧，孩子！",
	"place": "思劇場",
	"latitude": "24.804977",
	"longitude": "120.964321"
}, {
	"startDate": "2014-07-05",
	"endDate": "2014-08-24",
	"time": "",
	"name": "四川美院作品展「鄉土傷痕西南魂」",
	"place": "國立歷史博物館",
	"latitude": "25.03141",
	"longitude": "121.511179"
}, {
	"startDate": "2014-11-02",
	"endDate": "2014-11-02",
	"time": "",
	"name": "牙醫師漱口盃路跑2014",
	"place": "大佳河濱公園",
	"latitude": "25.0644067",
	"longitude": "121.5335659"
}, {
	"startDate": "2014-07-20",
	"endDate": "2014-07-20",
	"time": "",
	"name": "桃園大劇場起飛 2014 大館帶小館系列活動",
	"place": "桃園縣八德市綜合大樓",
	"latitude": "24.963001",
	"longitude": "121.296685"
}, {
	"startDate": "2014-09-30",
	"endDate": "2014-09-30",
	"time": "",
	"name": "德國SPARK樂團台灣巡迴音樂會2014",
	"place": "台北國家音樂廳",
	"latitude": "25.036731",
	"longitude": "121.519033"
}, {
	"startDate": "2014-07-05",
	"endDate": "2014-08-17",
	"time": "",
	"name": "婁燁 人的風景 藝術展 2014",
	"place": "谷公館",
	"latitude": "25.0466449",
	"longitude": "121.5492517"
}, {
	"startDate": "2014-08-02",
	"endDate": "2014-08-02",
	"time": "",
	"name": "管罄『不是人』Live house巡迴演唱 2014",
	"place": "海邊的卡夫卡",
	"latitude": "25.017086",
	"longitude": "121.531135"
}, {
	"startDate": "2014-07-15",
	"endDate": "2014-08-24",
	"time": "",
	"name": "2014藝術拼布地平線展",
	"place": "苗栗縣苗北藝文中心",
	"latitude": "24.6905875",
	"longitude": "120.8886966"
}, {
	"startDate": "2014-07-11",
	"endDate": "2014-08-10",
	"time": "",
	"name": "【航空慾樂園】北歐耆靡版神鬼玩家 揭開航空大亨生活祕辛",
	"place": "全省首輪戲院",
	"latitude": "22.9806346",
	"longitude": "113.9407648"
}, {
	"startDate": "2014-07-12",
	"endDate": "2014-08-06",
	"time": "",
	"name": "重口味陳穎2014新作發表",
	"place": "秋刀魚藝術中心",
	"latitude": "25.077385",
	"longitude": "121.563162"
}, {
	"startDate": "2014-09-19",
	"endDate": "2014-10-18",
	"time": "",
	"name": "【錄到鬼3:姻屍錄】帶觀眾直擊活屍血宴現場",
	"place": "全省首輪戲院",
	"latitude": "22.9806346",
	"longitude": "113.9407648"
}, {
	"startDate": "2014-08-01",
	"endDate": "2014-08-02",
	"time": "",
	"name": "華語金曲七夕夜－黑牛郎。白織女 2014",
	"place": "Legacy Taipei 傳 音樂展演空間",
	"latitude": "25.043604",
	"longitude": "121.52906"
}, {
	"startDate": "2014-07-26",
	"endDate": "2014-07-26",
	"time": "",
	"name": "【The North Face去野俱樂部】翻越硫磺谷-勇闖陽明山秘徑！",
	"place": "陽明山國家公園",
	"latitude": "25.091075",
	"longitude": "121.5598345"
}, {
	"startDate": "2014-06-22",
	"endDate": "2014-06-22",
	"time": "",
	"name": "九天民俗技藝團2014年度演出計畫【迎王】",
	"place": "台北市社教館城市舞台",
	"latitude": "25.0483418",
	"longitude": "121.5522472"
}, {
	"startDate": "2014-09-14",
	"endDate": "2014-09-14",
	"time": "",
	"name": "捷安特鐵人兩項&大鐵人賽",
	"place": "台中市大甲鐵砧山風景區",
	"latitude": "24.357468",
	"longitude": "120.643353"
}, {
	"startDate": "2014-08-02",
	"endDate": "2014-08-30",
	"time": "",
	"name": "【好睞】《Robot Concept Design》吳崇榮‧機器人概念設計個展",
	"place": "台中smohouse",
	"latitude": "24.160771",
	"longitude": "120.675443"
}, {
	"startDate": "2014-07-02",
	"endDate": "2014-09-22",
	"time": "",
	"name": "包裝設計人才養成班",
	"place": "學學文創志業大樓",
	"latitude": "25.07819",
	"longitude": "121.56658"
}, {
	"startDate": "2014-06-22",
	"endDate": "2014-06-22",
	"time": "",
	"name": "淡水小鎮 25周年特別紀念版",
	"place": "國家戲劇院",
	"latitude": "25.035022",
	"longitude": "121.517743"
}, {
	"startDate": "2014-08-09",
	"endDate": "2014-08-31",
	"time": "",
	"name": "Exhibition M  東京麻吉：攝影集＆限量簽名海報展",
	"place": "田園城市藝文空間",
	"latitude": "25.05697",
	"longitude": "121.52234"
}, {
	"startDate": "2014-08-14",
	"endDate": "2014-08-14",
	"time": "",
	"name": "影像世代的黑色幽默喜劇《大算命家》",
	"place": "國父紀念館",
	"latitude": "25.0395799",
	"longitude": "121.5602659"
}, {
	"startDate": "2014-10-10",
	"endDate": "2014-10-10",
	"time": "",
	"name": "十十刻刻，為eye而跑 愛心路跑",
	"place": "美堤河濱公園",
	"latitude": "25.0755213",
	"longitude": "121.5526993"
}, {
	"startDate": "2014-07-29",
	"endDate": "2014-08-01",
	"time": "",
	"name": "舞鈴學園夏令營2014扯鈴課程",
	"place": "文山劇場（台北市景文街32號，捷運景美站1號出口）",
	"latitude": "25.091075",
	"longitude": "121.5598345"
}, {
	"startDate": "2014-07-26",
	"endDate": "2014-08-03",
	"time": "",
	"name": "【問號空間】王艾莉@STUDIO創意研習營",
	"place": "@STUDIO",
	"latitude": "24.17381",
	"longitude": "120.668592"
}, {
	"startDate": "2014-08-15",
	"endDate": "2014-08-31",
	"time": "",
	"name": "鷄籠中元祭 2014",
	"place": "基隆市",
	"latitude": "25.1089809",
	"longitude": "121.7081454"
}, {
	"startDate": "2014-11-23",
	"endDate": "2014-11-23",
	"time": "",
	"name": "屏東單車國道馬拉松賽 2014",
	"place": "屏東女中",
	"latitude": "22.67434",
	"longitude": "120.493676"
}, {
	"startDate": "2014-08-01",
	"endDate": "2014-08-01",
	"time": "",
	"name": "臺北兒童藝術節2014《小潔的魔法時光蛋》",
	"place": "水源劇場",
	"latitude": "25.0137429",
	"longitude": "121.535005"
}, {
	"startDate": "2014-09-20",
	"endDate": "2014-09-20",
	"time": "",
	"name": "寶島時代村夜市潮路跑2014 Fantastic running",
	"place": "寶島時代村(南投縣草屯鎮中正路1039號)",
	"latitude": "23.987939",
	"longitude": "120.686767"
}, {
	"startDate": "2012-10-31",
	"endDate": "2015-10-31",
	"time": "",
	"name": "【新竹縣文化局】遇見新樂園",
	"place": "新竹縣縣史館",
	"latitude": "24.830692",
	"longitude": "121.013428"
}, {
	"startDate": "2014-11-15",
	"endDate": "2014-11-15",
	"time": "",
	"name": "澎湖馬拉松2014",
	"place": "澎湖觀音亭",
	"latitude": "23.567592",
	"longitude": "119.562065"
}, {
	"startDate": "2014-07-20",
	"endDate": "2014-07-20",
	"time": "",
	"name": "第十屆捷運盃捷客街舞大賽 2014",
	"place": "台北捷運劍南路站",
	"latitude": "25.0935968",
	"longitude": "121.5940773"
}, {
	"startDate": "2014-06-14",
	"endDate": "2014-10-19",
	"time": "",
	"name": "城濠內的故事：長江中游史前考古文物展 2014",
	"place": "新北市立十三行博物館",
	"latitude": "25.160207",
	"longitude": "121.410098"
}, {
	"startDate": "2014-10-31",
	"endDate": "2014-11-07",
	"time": "",
	"name": "關渡國際動畫節2014",
	"place": "國立臺北藝術大學關渡美術館",
	"latitude": "25.131342",
	"longitude": "121.466984"
}, {
	"startDate": "2014-07-19",
	"endDate": "2014-08-03",
	"time": "",
	"name": "羅東藝穗節2014",
	"place": "羅東鎮展演廳",
	"latitude": "24.676235",
	"longitude": "121.767242"
}, {
	"startDate": "2014-07-25",
	"endDate": "2014-08-24",
	"time": "",
	"name": "【一千次晚安】橫跨歐洲、非洲兩大洲攝製，旅行、冒險的必看佳片!!",
	"place": "全省首輪戲院",
	"latitude": "22.9806346",
	"longitude": "113.9407648"
}, {
	"startDate": "2014-09-06",
	"endDate": "2014-09-07",
	"time": "",
	"name": "臺北藝穗節2014 奇思行動故事車-宇宙馬戲團",
	"place": "圓山花博公園-集食行樂廣場",
	"latitude": "23.920327",
	"longitude": "121.415361"
}, {
	"startDate": "2014-08-02",
	"endDate": "2014-08-02",
	"time": "",
	"name": "中川翔子台北演唱會 9lives Asia Tour 2014",
	"place": "The Wall 公館",
	"latitude": "25.0109118",
	"longitude": "121.536655"
}, {
	"startDate": "2014-08-30",
	"endDate": "2014-12-13",
	"time": "",
	"name": "看電影‧談藝文系列講座2014",
	"place": "中正紀念堂演藝廳",
	"latitude": "25.0346522",
	"longitude": "121.5218265"
}, {
	"startDate": "2014-06-01",
	"endDate": "2014-08-31",
	"time": "",
	"name": "暑期的探險日誌 快來填滿你的日誌",
	"place": "台灣昆蟲館",
	"latitude": "25.027872",
	"longitude": "121.53884"
}, {
	"startDate": "2014-09-27",
	"endDate": "2014-09-27",
	"time": "",
	"name": "巫頂的生活日記",
	"place": "大東文化藝術中心",
	"latitude": "22.624969",
	"longitude": "120.363488"
}, {
	"startDate": "2014-10-26",
	"endDate": "2014-10-26",
	"time": "",
	"name": "永豐紅酒半程馬拉松變裝嘉年華2014",
	"place": "外埔區永豐社區",
	"latitude": "24.207226",
	"longitude": "120.560214"
}, {
	"startDate": "2014-07-18",
	"endDate": "2014-07-18",
	"time": "",
	"name": "『生活不就是這樣』PiA 發片巡迴演唱會 2014 Ain't Life a Surprise",
	"place": "台東鐵花村音樂聚落",
	"latitude": "25.043604",
	"longitude": "121.52906"
}, {
	"startDate": "2014-06-14",
	"endDate": "2014-07-31",
	"time": "",
	"name": "「人生精彩 」─李善單新水墨 畫話人生 開創當代水墨新藝象",
	"place": "新藝境‧寶勝畫廊台北館",
	"latitude": "25.05793",
	"longitude": "121.549549"
}, {
	"startDate": "2014-07-17",
	"endDate": "2014-08-02",
	"time": "",
	"name": "93巷人文空間｜夏日環保曬書節",
	"place": "93巷人文空間",
	"latitude": "25.050545",
	"longitude": "121.533601"
}, {
	"startDate": "2014-04-16",
	"endDate": "2014-08-08",
	"time": "",
	"name": "2014舞躍大地舞蹈創作比賽",
	"place": "全省全台灣",
	"latitude": "25.047226",
	"longitude": "121.444167"
}, {
	"startDate": "2012-01-10",
	"endDate": "2017-12-31",
	"time": "",
	"name": "【高雄歷史博物館】高小雄的家－兒童故事屋",
	"place": "高雄市立歷史博物館",
	"latitude": "22.626737",
	"longitude": "120.286883"
}, {
	"startDate": "2014-07-08",
	"endDate": "2014-08-23",
	"time": "",
	"name": "［2014夏令營］朱銘美術館兒童雕塑營－種一件發芽的禮物",
	"place": "朱銘美術館",
	"latitude": "24.9157122",
	"longitude": "121.6739371"
}, {
	"startDate": "2014-07-27",
	"endDate": "2014-07-27",
	"time": "",
	"name": "【周先生與舞者們】 舞蹈旅行計畫 2014 《1875拉威爾與波麗露》四度巡演",
	"place": "鹿港龍山寺",
	"latitude": "24.050384",
	"longitude": "120.435628"
}, {
	"startDate": "2014-06-28",
	"endDate": "2015-05-24",
	"time": "",
	"name": "詩與藝，手牽手",
	"place": "高雄市立美術館兒童美術館202展覽室-高雄市鼓山區美術館路80號",
	"latitude": "22.661767",
	"longitude": "120.311861"
}, {
	"startDate": "2014-09-12",
	"endDate": "2014-09-28",
	"time": "",
	"name": "新北市電影節 2014",
	"place": "新北市",
	"latitude": "24.9157122",
	"longitude": "121.6739371"
}, {
	"startDate": "2014-08-01",
	"endDate": "2014-08-02",
	"time": "",
	"name": "AD325 Psilocybine方舟 - 太空裝置x外星物種派對",
	"place": "PIPE Live Music",
	"latitude": "25.013286",
	"longitude": "121.530253"
}, {
	"startDate": "2014-08-10",
	"endDate": "2014-08-10",
	"time": "",
	"name": "荷雅佛朗民哥藝術的饗宴",
	"place": " 高雄市文化中心至善廳（高雄市苓雅區五福一路67號） 　",
	"latitude": "0",
	"longitude": "0"
}, {
	"startDate": "2014-07-25",
	"endDate": "2014-08-22",
	"time": "",
	"name": "金磚上的仿聲鳥",
	"place": "MEME Space 覓空間",
	"latitude": "25.02891",
	"longitude": "121.52136"
}, {
	"startDate": "2014-07-27",
	"endDate": "2014-07-27",
	"time": "",
	"name": "卡米地雙囍門之夏日大進擊",
	"place": "Comedy Club卡米地喜劇俱樂部",
	"latitude": "25.043137",
	"longitude": "121.562822"
}, {
	"startDate": "2014-08-02",
	"endDate": "2014-08-31",
	"time": "",
	"name": "許馨文個展 來自靜脈的聲音",
	"place": "紫藤廬",
	"latitude": "25.02462",
	"longitude": "121.534306"
}, {
	"startDate": "2014-07-03",
	"endDate": "2014-08-07",
	"time": "",
	"name": "從旅館看生活空間的六堂課",
	"place": "學學文創志業大樓",
	"latitude": "25.07819",
	"longitude": "121.56658"
}, {
	"startDate": "2014-11-16",
	"endDate": "2014-11-16",
	"time": "",
	"name": "【臺灣自行車節】西拉雅走馬飛車 2014",
	"place": "走馬瀨農場",
	"latitude": "23.1421962",
	"longitude": "120.4011911"
}, {
	"startDate": "2014-08-07",
	"endDate": "2014-08-07",
	"time": "",
	"name": "大團誕生The Next Big Thing（開發場 6）",
	"place": "Legacy Taipei 傳 音樂展演空間",
	"latitude": "25.043604",
	"longitude": "121.52906"
}, {
	"startDate": "2014-08-02",
	"endDate": "2014-08-02",
	"time": "",
	"name": "【天空音樂會】《生活不就是這樣》音樂分享會",
	"place": "誠品屏東店",
	"latitude": "22.674089",
	"longitude": "120.489736"
}, {
	"startDate": "2014-07-11",
	"endDate": "2014-08-10",
	"time": "",
	"name": "【行動代號：孫中山】《藍色大門》金獎導演易智言首部青春校園喜劇",
	"place": "全省首輪戲院",
	"latitude": "22.9806346",
	"longitude": "113.9407648"
}, {
	"startDate": "2014-08-02",
	"endDate": "2014-12-06",
	"time": "",
	"name": "文化講座",
	"place": "國立國父紀念館演講廳",
	"latitude": "25.006582",
	"longitude": "121.316048"
}, {
	"startDate": "2014-05-30",
	"endDate": "2014-07-30",
	"time": "",
	"name": "環保生活藝術展 DOLLY CLUB還我清白篇",
	"place": "羅爵咖啡Roger Cafe’ (台北市基隆路二段151-1號1F",
	"latitude": "25.026162",
	"longitude": "121.554889"
}, {
	"startDate": "2014-07-09",
	"endDate": "2014-07-18",
	"time": "",
	"name": "【2014華文朗讀節】故事別境：Long Story Short",
	"place": "場地請詳見活動資訊",
	"latitude": "24.9284719",
	"longitude": "121.372319"
}, {
	"startDate": "2014-09-21",
	"endDate": "2014-09-21",
	"time": "",
	"name": "日本樂團 the HIATUS 台灣演唱會2014 Keeper Of The Flame Live",
	"place": "Legacy Taipei 傳 音樂展演空間",
	"latitude": "25.043604",
	"longitude": "121.52906"
}, {
	"startDate": "2014-06-28",
	"endDate": "2014-09-28",
	"time": "",
	"name": "創作論壇　蟲洞劇場（文件編號：E120N23）",
	"place": "高雄市立美術館",
	"latitude": "22.656355",
	"longitude": "120.286546"
}, {
	"startDate": "2014-07-12",
	"endDate": "2014-08-09",
	"time": "",
	"name": "光與影的微夢想 紅琉璃│07/12-08/09",
	"place": "甘樂文創",
	"latitude": "24.9344251",
	"longitude": "121.3725275"
}, {
	"startDate": "2014-08-15",
	"endDate": "2014-08-15",
	"time": "",
	"name": "「戲身‧戲語 性別浮世繪」系列作品1《告別黑甜鄉的女人》",
	"place": "臺中市文化創意園區台中市復興路三段362號",
	"latitude": "24.133345",
	"longitude": "120.680747"
}, {
	"startDate": "2014-06-06",
	"endDate": "2014-06-06",
	"time": "",
	"name": "魚蹦興業【魚蹦上菜】2014 台中/高雄",
	"place": "台中大墩文化中心",
	"latitude": "22.595275",
	"longitude": "120.307256"
}, {
	"startDate": "2014-09-11",
	"endDate": "2014-09-11",
	"time": "",
	"name": "臺北藝穗節2014《單身套房》",
	"place": "小小幸福",
	"latitude": "25.058857",
	"longitude": "121.52947"
}, {
	"startDate": "2014-07-05",
	"endDate": "2014-07-26",
	"time": "",
	"name": "台北愛樂室內樂坊《2014兒童樂園》系列音樂會 經典童話故事《灰姑娘》",
	"place": "台北愛樂暨梅哲音樂文化館",
	"latitude": "25.042724",
	"longitude": "121.521926"
}, {
	"startDate": "2014-08-21",
	"endDate": "2014-08-21",
	"time": "",
	"name": "小小市民の音樂會2014",
	"place": "國家音樂廳",
	"latitude": "25.034961",
	"longitude": "121.518003"
}, {
	"startDate": "2014-09-06",
	"endDate": "2014-09-06",
	"time": "",
	"name": "如果兒童劇團《守護精靈的約定》",
	"place": "台北市社教館城市舞台",
	"latitude": "25.048332",
	"longitude": "121.551901"
}, {
	"startDate": "2014-07-11",
	"endDate": "2014-08-10",
	"time": "",
	"name": "【攻城時刻】基督教與伊斯蘭教的聖戰",
	"place": "全省首輪戲院",
	"latitude": "22.9806346",
	"longitude": "113.9407648"
}, {
	"startDate": "2014-08-01",
	"endDate": "2014-08-01",
	"time": "",
	"name": "【墾丁海生館】邂逅鯨典-夕遊後灣單車行",
	"place": "國立海洋生物博物館",
	"latitude": "22.046392",
	"longitude": "120.702121"
}, {
	"startDate": "2014-10-26",
	"endDate": "2014-10-26",
	"time": "",
	"name": "世界骨鬆日2014 馬來勇筋骨腿腳有力 日行千里",
	"place": "澄清湖風景區",
	"latitude": "22.656496",
	"longitude": "120.354064"
}, {
	"startDate": "2014-05-03",
	"endDate": "2014-08-31",
	"time": "",
	"name": "戴秀雄的刀劍創作展 粗獷與溫柔的衝突美學",
	"place": "郭常喜藝術兵器文物館",
	"latitude": "22.875089",
	"longitude": "120.197872"
}, {
	"startDate": "2014-08-16",
	"endDate": "2014-08-16",
	"time": "",
	"name": "快樂墾丁熱氣球星光跑",
	"place": "小墾丁渡假村(屏東縣滿州村中山路205號)",
	"latitude": "22.026154",
	"longitude": "120.832261"
}, {
	"startDate": "2014-11-09",
	"endDate": "2014-11-09",
	"time": "",
	"name": "第一屆「壯圍盃」宜蘭河兩岸全國馬拉松2014",
	"place": "壯圍鄉",
	"latitude": "24.769569",
	"longitude": "121.7993168"
}, {
	"startDate": "2014-07-05",
	"endDate": "2014-07-27",
	"time": "",
	"name": "活體資料庫：變異形象的墨彩製造",
	"place": "也趣藝廊 Aki Gallery",
	"latitude": "25.068709",
	"longitude": "121.516406"
}, {
	"startDate": "2014-08-10",
	"endDate": "2014-08-10",
	"time": "",
	"name": "【河岸留言年度爵士薦選】The Aristocrats臺北演奏會及樂團講座",
	"place": "西門紅樓展演館",
	"latitude": "25.042033",
	"longitude": "121.506575"
}, {
	"startDate": "2014-08-01",
	"endDate": "2014-08-01",
	"time": "",
	"name": "亞洲創意實驗室No.3《iStory4》",
	"place": "新竹鐵屋頂劇場.",
	"latitude": "24.8036511",
	"longitude": "120.980923"
}, {
	"startDate": "2014-07-13",
	"endDate": "2014-08-10",
	"time": "",
	"name": "柯錫杰『探』莫內",
	"place": "鳳甲美術館",
	"latitude": "25.126384",
	"longitude": "121.498596"
}, {
	"startDate": "2015-01-01",
	"endDate": "2015-12-31",
	"time": "",
	"name": "二二八主題展－沉冤‧真相‧責任",
	"place": "二二八國家紀念館",
	"latitude": "25.031588",
	"longitude": "121.513801"
}, {
	"startDate": "2014-07-05",
	"endDate": "2014-08-30",
	"time": "",
	"name": "朱銘 陶作人間",
	"place": "朱銘美術館",
	"latitude": "24.9157122",
	"longitude": "121.6739371"
}, {
	"startDate": "2014-09-13",
	"endDate": "2014-09-13",
	"time": "",
	"name": "兩廳院夏日爵士派對2014－蘿貝塔．坎芭芮妮演唱會",
	"place": "國家音樂廳",
	"latitude": "25.034961",
	"longitude": "121.518003"
}, {
	"startDate": "2014-08-16",
	"endDate": "2014-08-16",
	"time": "",
	"name": "楊皓雲鋼琴獨奏會2014",
	"place": "琴峯樂器-FAZIOLI 法吉歐利鋼琴中心",
	"latitude": "25.0821698",
	"longitude": "121.5232186"
}, {
	"startDate": "2014-08-18",
	"endDate": "2014-08-23",
	"time": "",
	"name": "2014夏令營 泰雅獵人部落體驗營",
	"place": "宜蘭縣大同鄉崙埤部落",
	"latitude": "24.677216",
	"longitude": "121.60924"
}, {
	"startDate": "2014-12-07",
	"endDate": "2014-12-07",
	"time": "",
	"name": "第一屆朝陽追峰全國環境路跑賽2014",
	"place": "朝陽科技大學",
	"latitude": "24.069344",
	"longitude": "120.714568"
}, {
	"startDate": "2014-08-02",
	"endDate": "2014-08-02",
	"time": "",
	"name": "當日本女子偶像團遇見大稻埕",
	"place": "思劇場",
	"latitude": "24.804977",
	"longitude": "120.964321"
}, {
	"startDate": "2014-01-01",
	"endDate": "2014-10-30",
	"time": "",
	"name": "同舟共濟，心血相連：黑蝙蝠中隊傘兵特展",
	"place": "新竹市黑蝙蝠中隊文物陳列館 展覽廳",
	"latitude": "24.811356",
	"longitude": "120.968914"
}, {
	"startDate": "2014-07-26",
	"endDate": "2014-11-02",
	"time": "",
	"name": "庄頭藝穗節2014",
	"place": "高雄市全區",
	"latitude": "22.840366",
	"longitude": "120.406398"
}, {
	"startDate": "2014-10-25",
	"endDate": "2014-10-25",
	"time": "",
	"name": "星光幸福夜跑 三蘆站",
	"place": "新北市三重區",
	"latitude": "25.060808",
	"longitude": "121.4856066"
}, {
	"startDate": "2014-09-28",
	"endDate": "2014-09-28",
	"time": "",
	"name": "今井麻美 彩音台灣演唱會 2014 Joint Live in TAIWAN",
	"place": "The Wall 公館",
	"latitude": "25.0109118",
	"longitude": "121.536655"
}, {
	"startDate": "2014-10-31",
	"endDate": "2014-10-31",
	"time": "",
	"name": "2x2 許芳宜x譚元元",
	"place": "國家戲劇院",
	"latitude": "25.035022",
	"longitude": "121.517743"
}, {
	"startDate": "2014-07-01",
	"endDate": "2014-09-30",
	"time": "",
	"name": "梅峰農場「在地蔬食」活動 2014",
	"place": "國立台灣大學生物資源暨農學院附設山地實驗農場（台大梅峰農場）",
	"latitude": "24.089522",
	"longitude": "121.174277"
}, {
	"startDate": "2014-10-11",
	"endDate": "2014-10-12",
	"time": "",
	"name": "台灣國際重唱藝術節 2014",
	"place": "台北市中山堂光復廳",
	"latitude": "25.043204",
	"longitude": "121.510036"
}, {
	"startDate": "2014-07-23",
	"endDate": "2014-07-27",
	"time": "",
	"name": "GODIVA X 學學：親手製作屬於自己的頂級巧克力",
	"place": "學學文創志業大樓",
	"latitude": "25.07819",
	"longitude": "121.56658"
}, {
	"startDate": "2014-05-27",
	"endDate": "2014-10-12",
	"time": "",
	"name": "臺灣國際陶藝雙年展2014 新陶時代",
	"place": "新北市立鶯歌陶瓷博物館",
	"latitude": "24.949339",
	"longitude": "121.352331"
}, {
	"startDate": "2014-12-31",
	"endDate": "2014-12-31",
	"time": "",
	"name": "全民大劇團 跨年不打烊《2015新年…就快樂啦！》",
	"place": "台北市社教館城市舞台",
	"latitude": "25.048332",
	"longitude": "121.551901"
}, {
	"startDate": "2013-12-14",
	"endDate": "2014-11-30",
	"time": "",
	"name": "歷史改「皂」：申美璟跨國聯展計劃",
	"place": "台北當代藝術館",
	"latitude": "25.050562",
	"longitude": "121.518874"
}, {
	"startDate": "2014-07-07",
	"endDate": "2014-08-29",
	"time": "",
	"name": "府中15「全員啟『動』暑期動畫營」",
	"place": "府中15新北市動畫故事館",
	"latitude": "25.009389",
	"longitude": "121.459618"
}, {
	"startDate": "2014-09-14",
	"endDate": "2014-09-14",
	"time": "",
	"name": "基隆安樂長跑盃瑪陵友蚋馬拉松",
	"place": "七堵區友蚋生態園區",
	"latitude": "25.095721",
	"longitude": "121.666378"
}, {
	"startDate": "2014-11-09",
	"endDate": "2014-11-09",
	"time": "",
	"name": "臺灣自行車節 2014",
	"place": "日月潭國家風景區管理處",
	"latitude": "23.8753852",
	"longitude": "120.9187827"
}, {
	"startDate": "2014-08-02",
	"endDate": "2014-08-02",
	"time": "",
	"name": "幸福三太子英雄會2014",
	"place": "高雄市三鳳宮",
	"latitude": "22.635696",
	"longitude": "120.294128"
}, {
	"startDate": "2014-07-25",
	"endDate": "2014-07-26",
	"time": "",
	"name": "日月潭國際鐵人三項暨水陸兩項錦標賽2014",
	"place": "日月潭及環潭道路（台21及台21甲省道）",
	"latitude": "23.847616",
	"longitude": "120.932813"
}, {
	"startDate": "2014-07-31",
	"endDate": "2014-07-31",
	"time": "",
	"name": "【2014華文朗讀節】譯動國界論壇",
	"place": "遠流別境libLAB",
	"latitude": "24.9284719",
	"longitude": "121.372319"
}, {
	"startDate": "2014-06-07",
	"endDate": "2014-08-09",
	"time": "",
	"name": "關廟旺萊飄香音樂季 2014",
	"place": "關廟山西宮",
	"latitude": "22.961804",
	"longitude": "120.325266"
}, {
	"startDate": "2014-07-20",
	"endDate": "2014-07-20",
	"time": "",
	"name": "台北打擊樂團年度公演《擊‧經典再現》",
	"place": "桃園展演中心展演廳",
	"latitude": "25.017473",
	"longitude": "121.298601"
}, {
	"startDate": "2014-08-02",
	"endDate": "2014-08-03",
	"time": "",
	"name": "SUPER ADD 裝置趴VI《漸層Gradient》",
	"place": "PIPE Live Music",
	"latitude": "25.013286",
	"longitude": "121.530253"
}, {
	"startDate": "2014-05-10",
	"endDate": "2014-08-20",
	"time": "",
	"name": "陳玉枝．蜘蛛生態影像展",
	"place": "新北市石碇區淡蘭藝文館",
	"latitude": "24.990954",
	"longitude": "121.659741"
}, {
	"startDate": "2014-07-06",
	"endDate": "2014-07-27",
	"time": "",
	"name": "甘海蓉個展2014＜ 不准、超過、這、條、線。＞",
	"place": "新樂園藝術空間",
	"latitude": "24",
	"longitude": "121"
}, {
	"startDate": "2014-05-06",
	"endDate": "2014-08-31",
	"time": "",
	"name": "黃金佛國 緬甸信仰與人文特展【世界宗教博物館】",
	"place": "世界宗教博物館",
	"latitude": "25.007831",
	"longitude": "121.507502"
}, {
	"startDate": "2014-07-05",
	"endDate": "2014-07-05",
	"time": "",
	"name": "「觸動–“醜”的美學」藝術生活系列講座（夏季）",
	"place": "國立台灣美術館",
	"latitude": "24.141621",
	"longitude": "120.662111"
}, {
	"startDate": "2014-10-19",
	"endDate": "2014-10-19",
	"time": "",
	"name": "草嶺古道山徑越野賽2014",
	"place": "貢寮區福隆",
	"latitude": "25.023474",
	"longitude": "121.967969"
}, {
	"startDate": "2014-09-27",
	"endDate": "2014-09-27",
	"time": "",
	"name": "星光幸福夜跑 汐止站",
	"place": "汐止區",
	"latitude": "25.063784",
	"longitude": "121.658948"
}, {
	"startDate": "2014-09-06",
	"endDate": "2014-09-06",
	"time": "",
	"name": "運動美女型男路跑選拔賽2014",
	"place": "大佳河濱公園",
	"latitude": "25.0644067",
	"longitude": "121.5335659"
}, {
	"startDate": "2014-08-09",
	"endDate": "2014-08-09",
	"time": "",
	"name": "星光幸福夜跑 五股站",
	"place": "蘆洲區成蘆橋下微風運河",
	"latitude": "25.066887",
	"longitude": "121.470215"
}, {
	"startDate": "2014-06-27",
	"endDate": "2014-06-27",
	"time": "",
	"name": "海鷗‧K 五週年巡迴演唱會 2014 OK，Let`s Go!",
	"place": "A House",
	"latitude": "25.044176",
	"longitude": "121.545333"
}, {
	"startDate": "2014-01-01",
	"endDate": "2014-12-31",
	"time": "",
	"name": "小白宮‧歷史特展--前清淡水關稅務司官邸的歷史演進及變遷",
	"place": "小白宮（前清淡水關稅務司官邸）",
	"latitude": "25.173516",
	"longitude": "121.436466"
}, {
	"startDate": "2014-11-12",
	"endDate": "2014-11-12",
	"time": "",
	"name": "時代之歌~懷念金曲演唱會",
	"place": "台北國父紀念館",
	"latitude": "25.039907",
	"longitude": "121.560296"
}, {
	"startDate": "2014-08-02",
	"endDate": "2014-08-02",
	"time": "",
	"name": "星期二樂團TUESDAY－請給我好ㄧ點的情歌",
	"place": "A House",
	"latitude": "25.044176",
	"longitude": "121.545333"
}, {
	"startDate": "2014-08-16",
	"endDate": "2014-08-16",
	"time": "",
	"name": "【誠品親子】童話薩克斯「瘋」",
	"place": "誠品表演廳",
	"latitude": "25.044615",
	"longitude": "121.561186"
}, {
	"startDate": "2014-08-31",
	"endDate": "2014-08-31",
	"time": "",
	"name": "第32屆日月潭國際萬人泳渡嘉年華 2014",
	"place": "日月潭國家風景區管理處",
	"latitude": "23.8753852",
	"longitude": "120.9187827"
}, {
	"startDate": "2014-07-04",
	"endDate": "2014-07-31",
	"time": "",
	"name": "「在覺得」師大美術系五人聯展",
	"place": "帕帕拉夏藝文中心(台北市金華街243巷21號)",
	"latitude": "25.030934",
	"longitude": "121.53028"
}, {
	"startDate": "2014-11-02",
	"endDate": "2014-11-02",
	"time": "",
	"name": "新北市八里左岸全國馬拉松賽",
	"place": "重新大橋",
	"latitude": "25.050669",
	"longitude": "121.482323"
}, {
	"startDate": "2014-11-23",
	"endDate": "2014-11-23",
	"time": "",
	"name": "東北角海景馬拉松2014",
	"place": "貢寮區福隆",
	"latitude": "25.023474",
	"longitude": "121.967969"
}, {
	"startDate": "2011-10-22",
	"endDate": "2016-08-07",
	"time": "",
	"name": "【國立台灣文學館】台灣文學的內在世界常設展暨台南文學特展",
	"place": "國立台灣文學館",
	"latitude": "22.992274",
	"longitude": "120.204581"
}, {
	"startDate": "2014-05-24",
	"endDate": "2014-07-05",
	"time": "",
	"name": "湯皇珍紀錄展2014 尤里西斯機器之旅",
	"place": "藝術8",
	"latitude": "25.050562",
	"longitude": "121.518874"
}, {
	"startDate": "2014-08-01",
	"endDate": "2014-08-03",
	"time": "",
	"name": "第二屆世界原住民族樂舞節2014",
	"place": "桃園縣政府",
	"latitude": "24.993063",
	"longitude": "121.300833"
}, {
	"startDate": "2014-07-26",
	"endDate": "2014-07-27",
	"time": "",
	"name": "第六屆想演就演戲劇節",
	"place": "桃園縣政府文化局中壢藝術館",
	"latitude": "24.958126",
	"longitude": "121.227384"
}, {
	"startDate": "2014-07-25",
	"endDate": "2014-08-24",
	"time": "",
	"name": "【盂蘭神功】金馬影帝張家輝首度自導自演，一鳴驚人",
	"place": "全省首輪戲院",
	"latitude": "22.9806346",
	"longitude": "113.9407648"
}, {
	"startDate": "2014-05-16",
	"endDate": "2014-07-31",
	"time": "",
	"name": "台灣V4中歐電影節2014",
	"place": "全台灣",
	"latitude": "23.973875",
	"longitude": "120.982024"
}, {
	"startDate": "2014-08-09",
	"endDate": "2014-08-09",
	"time": "",
	"name": "蘋果劇團 龍宮奇緣",
	"place": "新北市藝文中心演藝廳",
	"latitude": "25.047226",
	"longitude": "121.444167"
}, {
	"startDate": "2014-06-21",
	"endDate": "2014-07-27",
	"time": "",
	"name": "戴嘉明個展 活化的空白",
	"place": "台北數位藝術中心",
	"latitude": "25.105841",
	"longitude": "121.522079"
}, {
	"startDate": "2014-07-05",
	"endDate": "2014-08-20",
	"time": "",
	"name": "曾雍甯 迴旋個展2014",
	"place": "新畫廊 Nou Gallery",
	"latitude": "25.037477",
	"longitude": "121.55234"
}, {
	"startDate": "2014-12-14",
	"endDate": "2014-12-14",
	"time": "",
	"name": "阿公店盃全國馬拉松賽2014",
	"place": "岡山農工",
	"latitude": "22.802458",
	"longitude": "120.289939"
}, {
	"startDate": "2014-07-12",
	"endDate": "2014-09-07",
	"time": "",
	"name": "陳衍儒壓克力創作個展 2014  寂靜的擁抱",
	"place": "金車藝術空間",
	"latitude": "24.833116",
	"longitude": "121.779924"
}, {
	"startDate": "2011-12-25",
	"endDate": "2014-12-25",
	"time": "",
	"name": "【佛光山佛陀紀念館】「佛教地宮還原」常設展",
	"place": "佛光山佛陀紀念館",
	"latitude": "22.708371",
	"longitude": "120.4242401"
}, {
	"startDate": "2014-07-26",
	"endDate": "2014-07-26",
	"time": "",
	"name": "【欣講堂】跟著玩美南人回家：阿根廷單國遊 台北/台中",
	"place": "雄獅台大人文空間（欣講堂 XIN Forum）",
	"latitude": "25.0170909",
	"longitude": "121.532259"
}, {
	"startDate": "2014-01-01",
	"endDate": "2014-12-31",
	"time": "",
	"name": "傳承馨香瀰漫",
	"place": "新港香藝文化館",
	"latitude": "24",
	"longitude": "121"
}, {
	"startDate": "2014-07-01",
	"endDate": "2014-07-31",
	"time": "",
	"name": "金車美展2015 申請辦法簡章",
	"place": "金車文藝中心台北館",
	"latitude": "25.052287",
	"longitude": "121.527956"
}, {
	"startDate": "2014-08-08",
	"endDate": "2014-08-08",
	"time": "",
	"name": "鈕扣計畫2014",
	"place": "誠品信義店6F展演廳",
	"latitude": "25.043708",
	"longitude": "121.559325"
}, {
	"startDate": "2014-08-15",
	"endDate": "2014-09-05",
	"time": "",
	"name": "聲音開發工作坊-找到與自己聲音工作的方式（平日班）",
	"place": "學學文創志業大樓",
	"latitude": "25.07819",
	"longitude": "121.56658"
}, {
	"startDate": "2014-08-03",
	"endDate": "2014-08-03",
	"time": "",
	"name": "父親節最溫馨的親子互動- 畫爸爸的臉 SOGO人氣公益活動",
	"place": "太平洋SOGO百貨台北敦化館",
	"latitude": "25.040184",
	"longitude": "121.5484"
}, {
	"startDate": "2012-02-28",
	"endDate": "2017-02-28",
	"time": "",
	"name": "【高雄歷史博物館】二二八紀念系列活動之四：二二八‧0306展覽",
	"place": "高雄市立歷史博物館",
	"latitude": "22.626737",
	"longitude": "120.286883"
}, {
	"startDate": "2014-11-15",
	"endDate": "2014-11-15",
	"time": "",
	"name": "第一屆中華盃慈善星光夜跑",
	"place": "億載金城",
	"latitude": "24",
	"longitude": "121"
}, {
	"startDate": "2014-06-21",
	"endDate": "2014-08-02",
	"time": "",
	"name": "葉銘個展【汲色人】",
	"place": "光之藝廊",
	"latitude": "24.141039",
	"longitude": "120.661448"
}, {
	"startDate": "2014-09-10",
	"endDate": "2014-09-11",
	"time": "",
	"name": "Cut Copy “Free Your Mind ” Live in Taiwan 2014",
	"place": "The Wall 公館",
	"latitude": "25.0109118",
	"longitude": "121.536655"
}, {
	"startDate": "2014-06-01",
	"endDate": "2014-09-30",
	"time": "",
	"name": "國家公園週2014",
	"place": "全台灣",
	"latitude": "23.973875",
	"longitude": "120.982024"
}, {
	"startDate": "2014-07-26",
	"endDate": "2014-07-27",
	"time": "",
	"name": "SMOKE MACHINE NIGHT：SHAWN O`SULLIVAN",
	"place": "The Wall KORNER",
	"latitude": "25.0109118",
	"longitude": "121.536655"
}, {
	"startDate": "2014-07-01",
	"endDate": "2014-12-07",
	"time": "",
	"name": "好客藝起來",
	"place": "苗栗客家文化園區",
	"latitude": "24.4673482",
	"longitude": "120.766603"
}, {
	"startDate": "2014-07-16",
	"endDate": "2014-08-20",
	"time": "",
	"name": "小典藏．夏日微影展－經典法國瘋影動畫",
	"place": "典藏創意空間四館（台北市八德路二段335號4樓，典藏咖啡館內）",
	"latitude": "25.04755",
	"longitude": "121.543367"
}, {
	"startDate": "2014-08-23",
	"endDate": "2014-08-23",
	"time": "",
	"name": "《洋娃娃的鏡子派對》創意戲劇/表演潛能開發/簡易英語",
	"place": "臺南文化中心國際廳原生劇場",
	"latitude": "22.9747216",
	"longitude": "120.2215852"
}, {
	"startDate": "2014-08-29",
	"endDate": "2014-09-28",
	"time": "",
	"name": "【逆轉風帆】佛朗索瓦克魯塞繼《逆轉人生》又一溫暖人心作品",
	"place": "全省首輪戲院",
	"latitude": "22.9806346",
	"longitude": "113.9407648"
}, {
	"startDate": "2014-07-27",
	"endDate": "2014-07-27",
	"time": "",
	"name": "中華職棒JOHNSON明星對抗賽 2014",
	"place": "桃園國際棒球場",
	"latitude": "25.0036482",
	"longitude": "121.2015022"
}, {
	"startDate": "2014-10-12",
	"endDate": "2014-10-12",
	"time": "",
	"name": "台中市清水區第四屆區長盃高美溼地親子路跑賽2014",
	"place": "台中港區藝術中心",
	"latitude": "24.269565",
	"longitude": "120.557688"
}, {
	"startDate": "2014-05-03",
	"endDate": "2014-08-30",
	"time": "",
	"name": "「鳴沙遺珍──傅斯年圖書館藏敦煌遺書」特展",
	"place": "中央研究院歷史語言研究所歷史文物陳列館",
	"latitude": "25.039849",
	"longitude": "121.617362"
}, {
	"startDate": "2014-07-26",
	"endDate": "2014-07-26",
	"time": "",
	"name": "呂嘉與澳門樂團音樂會",
	"place": "國立清華大學大禮堂",
	"latitude": "24.794332",
	"longitude": "120.993601"
}, {
	"startDate": "2014-08-01",
	"endDate": "2014-08-31",
	"time": "",
	"name": "2014金車青年油畫獎",
	"place": "金車文藝中心台北館",
	"latitude": "25.052287",
	"longitude": "121.527956"
}, {
	"startDate": "2014-02-10",
	"endDate": "2014-04-30",
	"time": "",
	"name": "2014台灣國際錄像藝術展徵件_鬼魂的迴返",
	"place": "網路活動",
	"latitude": "25.126384",
	"longitude": "121.498596"
}, {
	"startDate": "2014-08-05",
	"endDate": "2014-08-05",
	"time": "",
	"name": "日本大提琴大師 堤剛、波蘭蕭邦鋼琴大師 傑布隆斯基、前維也納愛樂首席 丹尼爾‧蓋德 公開大師班",
	"place": "國家演奏廳",
	"latitude": "25.0367564",
	"longitude": "121.519047"
}, {
	"startDate": "2014-07-26",
	"endDate": "2014-07-26",
	"time": "",
	"name": "許哲珮《圓舞曲》演唱會 2014",
	"place": "Legacy Taipei 傳 音樂展演空間",
	"latitude": "25.043604",
	"longitude": "121.52906"
}, {
	"startDate": "2014-07-26",
	"endDate": "2014-07-26",
	"time": "",
	"name": "胖虎 punkhoo「反轉未來」亞洲巡迴台灣最終站",
	"place": "The Wall 公館",
	"latitude": "25.0109118",
	"longitude": "121.536655"
}, {
	"startDate": "2014-07-27",
	"endDate": "2014-07-27",
	"time": "",
	"name": "OSTA 舞蹈比賽",
	"place": " 高雄市文化中心至善廳（高雄市苓雅區五福一路67號） 　",
	"latitude": "0",
	"longitude": "0"
}, {
	"startDate": "2014-08-04",
	"endDate": "2014-08-06",
	"time": "",
	"name": "新北文學open講活動 2014 小小采風營暨文學營",
	"place": "府中15新北市動畫故事館",
	"latitude": "25.009389",
	"longitude": "121.459618"
}, {
	"startDate": "2014-08-23",
	"endDate": "2014-08-23",
	"time": "",
	"name": "簡翊洪創作個展 男孩與叔叔",
	"place": "新樂園藝術空間",
	"latitude": "24",
	"longitude": "121"
}, {
	"startDate": "2012-06-27",
	"endDate": "2015-12-31",
	"time": "",
	"name": "【科學工藝博物館】氣候變遷展「永恆的志業 中鋼專區」",
	"place": "國立科學工藝博物館",
	"latitude": "22.640138",
	"longitude": "120.322579"
}, {
	"startDate": "2014-10-18",
	"endDate": "2014-10-18",
	"time": "",
	"name": "中壢國際鐵人二項競賽2014",
	"place": "文中三學校預定地",
	"latitude": "22.60235",
	"longitude": "120.341773"
}, {
	"startDate": "2014-08-23",
	"endDate": "2014-08-23",
	"time": "",
	"name": "經典老歌爵士音樂會【無限視界 無限感恩】",
	"place": "剝皮寮演藝廳",
	"latitude": "25.036904",
	"longitude": "121.501678"
}, {
	"startDate": "2013-11-30",
	"endDate": "2014-09-30",
	"time": "",
	"name": "定州花瓷－院藏定窯系白瓷特展",
	"place": "國立故宮博物院",
	"latitude": "25.134694",
	"longitude": "121.532443"
}, {
	"startDate": "2014-08-16",
	"endDate": "2014-08-16",
	"time": "",
	"name": "遇見喬安娜 Ciao，JOANNA LAtin／JAzz＜風微微＞",
	"place": "TADA方舟藝文展演空間",
	"latitude": "24.132733",
	"longitude": "120.679643"
}, {
	"startDate": "2014-07-26",
	"endDate": "2014-07-26",
	"time": "",
	"name": "陳惠婷首張個人創作專輯巡迴演唱會「21克」靈魂的重量",
	"place": "The Wall 駁二",
	"latitude": "22.6199759",
	"longitude": "120.281658"
}, {
	"startDate": "2014-09-12",
	"endDate": "2014-09-12",
	"time": "",
	"name": "《口對口人工吐槽III》後宮舞孃爭飯傳",
	"place": "高雄正港小劇場",
	"latitude": "22.626073",
	"longitude": "120.317931"
}, {
	"startDate": "2014-08-12",
	"endDate": "2014-08-12",
	"time": "",
	"name": "Phoenix Live in TAIWAN 2014",
	"place": "Legacy Taipei 傳 音樂展演空間",
	"latitude": "25.043604",
	"longitude": "121.52906"
}, {
	"startDate": "2014-09-05",
	"endDate": "2014-09-05",
	"time": "",
	"name": "臺北藝穗節2014 《即興大富翁》",
	"place": "小路上藝文空間",
	"latitude": "25.0261389",
	"longitude": "121.524454"
}, {
	"startDate": "2014-07-19",
	"endDate": "2014-07-27",
	"time": "",
	"name": "戀人的寶石箱 –麗乾花與押花特展",
	"place": "典美藝文空間",
	"latitude": "25.028196",
	"longitude": "121.570994"
}, {
	"startDate": "2014-08-08",
	"endDate": "2014-08-08",
	"time": "",
	"name": "國光劇團《賣鬼狂想》",
	"place": "國光劇場",
	"latitude": "31.250403",
	"longitude": "121.499579"
}, {
	"startDate": "2014-07-31",
	"endDate": "2014-08-03",
	"time": "",
	"name": "陳亞蘭歌仔戲《牛郎織女》 2014",
	"place": "國立國父紀念館",
	"latitude": "25.040054",
	"longitude": "121.560039"
}, {
	"startDate": "2010-09-24",
	"endDate": "2015-09-30",
	"time": "",
	"name": "奧斯卡演藝學苑-明星歌唱體驗先修班",
	"place": "奧斯卡演藝學苑",
	"latitude": "24.1508236",
	"longitude": "120.6506072"
}, {
	"startDate": "2014-07-20",
	"endDate": "2014-07-20",
	"time": "",
	"name": "2014 台北好蝠氣 「發現、認識、保育」蝙蝠三部曲",
	"place": "臺北市動物保護處",
	"latitude": "24",
	"longitude": "121"
}, {
	"startDate": "2014-08-30",
	"endDate": "2014-08-30",
	"time": "",
	"name": "台北首督芭蕾舞團年度創作2014《我們都是一家人》",
	"place": "台北市社教館城市舞台",
	"latitude": "25.048332",
	"longitude": "121.551901"
}, {
	"startDate": "2014-09-09",
	"endDate": "2014-09-12",
	"time": "",
	"name": "臺北藝穗節2014─蘿莉塔（死繭羽化）",
	"place": "華山1914文創園區中2館 果酒禮堂2樓",
	"latitude": "25.0441303",
	"longitude": "121.5293995"
}, {
	"startDate": "2014-08-03",
	"endDate": "2014-08-03",
	"time": "",
	"name": "桃園縣議會議長盃路跑『騰越飛昇－桃園領航』2014",
	"place": "中壢市青埔棒球場",
	"latitude": "25.000255",
	"longitude": "121.200904"
}, {
	"startDate": "2014-06-01",
	"endDate": "2014-08-31",
	"time": "",
	"name": "真夏的歡聚時光影展",
	"place": "高雄市電影館3F",
	"latitude": "22.622397",
	"longitude": "120.288824"
}, {
	"startDate": "2014-08-31",
	"endDate": "2014-08-31",
	"time": "",
	"name": "72快道鐵人二項2014",
	"place": "苗栗縣立體育場",
	"latitude": "24.565598",
	"longitude": "120.824294"
}, {
	"startDate": "2014-10-01",
	"endDate": "2014-10-31",
	"time": "",
	"name": "2014 花蓮國際石雕藝術季",
	"place": "花蓮縣",
	"latitude": "23.7568986",
	"longitude": "121.3541631"
}, {
	"startDate": "2014-07-01",
	"endDate": "2014-08-29",
	"time": "",
	"name": "藝遊未境 2014 藝術夏令營",
	"place": "藝遊未境兒童藝術教育機構",
	"latitude": "25.029072",
	"longitude": "121.525764"
}, {
	"startDate": "2014-08-03",
	"endDate": "2014-08-03",
	"time": "",
	"name": "藝饗新北市2014─愛上劇場 風神寶寶兒童劇團《風神寶寶之嫦娥奔月》",
	"place": "新北市藝文中心演藝廳",
	"latitude": "25.047226",
	"longitude": "121.444167"
}, {
	"startDate": "2014-11-30",
	"endDate": "2014-11-30",
	"time": "",
	"name": "紅瓦厝保生盃全國馬拉松2014",
	"place": "歸仁區",
	"latitude": "22.967265",
	"longitude": "120.293841"
}, {
	"startDate": "2014-01-01",
	"endDate": "2014-12-31",
	"time": "",
	"name": "南科考古文物常設展",
	"place": "國立臺灣史前文化博物館南科考古文物陳列室 展覽室",
	"latitude": "23.097669",
	"longitude": "120.2757355"
}, {
	"startDate": "2014-07-25",
	"endDate": "2014-07-26",
	"time": "",
	"name": "Kartell（Roche Musique/FR） at KORNER牆角",
	"place": "KORNER",
	"latitude": "19.161855",
	"longitude": "50.805391"
}, {
	"startDate": "2014-08-31",
	"endDate": "2014-08-31",
	"time": "",
	"name": "臺北藝穗節 2014 夜貓劇團《音樂劇演唱會-我們的秘密》",
	"place": "大稻埕遊艇",
	"latitude": "25.016661",
	"longitude": "121.193862"
}, {
	"startDate": "2014-07-01",
	"endDate": "2014-08-31",
	"time": "",
	"name": "兒童暑期營2014《原氣大冒險》",
	"place": "順益台灣原住民博物館",
	"latitude": "25.100964",
	"longitude": "121.55198"
}, {
	"startDate": "2014-07-13",
	"endDate": "2014-07-13",
	"time": "",
	"name": "上劇團第28號作品 跨年度巡演計畫~流行音樂劇《希望車站》",
	"place": "臺中市屯區藝文中心演藝廳",
	"latitude": "24.156305",
	"longitude": "120.73444"
}, {
	"startDate": "2014-10-10",
	"endDate": "2014-10-10",
	"time": "",
	"name": "劍湖山世界海盜RUN 2014",
	"place": "劍湖山世界主題樂園",
	"latitude": "23.60822",
	"longitude": "120.570702"
}, {
	"startDate": "2014-07-18",
	"endDate": "2014-07-18",
	"time": "",
	"name": "103年度社區心理健康促進活動──第二季心靈映像館與諮詢講座",
	"place": "台灣國家婦女館",
	"latitude": "25.04314",
	"longitude": "121.526785"
}, {
	"startDate": "2014-08-28",
	"endDate": "2014-08-28",
	"time": "",
	"name": "日本鼓王神保彰亞洲巡迴講座 2014 台北場",
	"place": "Legacy Taipei 傳 音樂展演空間",
	"latitude": "25.043604",
	"longitude": "121.52906"
}, {
	"startDate": "2014-07-12",
	"endDate": "2014-08-20",
	"time": "",
	"name": "生活在他方影展",
	"place": "高雄市電影館",
	"latitude": "22.622671",
	"longitude": "120.289122"
}, {
	"startDate": "2014-07-26",
	"endDate": "2014-07-26",
	"time": "",
	"name": "張芸京音樂會 2014 我要我的七矮人",
	"place": "河岸留言西門紅樓展演館",
	"latitude": "25.042033",
	"longitude": "121.506575"
}, {
	"startDate": "2014-07-27",
	"endDate": "2014-07-27",
	"time": "",
	"name": "勇氣即興《黑裸Harold》-長篇即興劇",
	"place": "勇氣即興主舞台",
	"latitude": "25.057788",
	"longitude": "121.518461"
}, {
	"startDate": "2014-07-01",
	"endDate": "2014-08-28",
	"time": "",
	"name": "暑期藝術buffet體驗營",
	"place": "抱瓶庵藝事空間",
	"latitude": "25.055744",
	"longitude": "121.509904"
}, {
	"startDate": "2014-08-15",
	"endDate": "2014-09-14",
	"time": "",
	"name": "【等一個人咖啡】改編自九把刀小說",
	"place": "全省首輪戲院",
	"latitude": "22.9806346",
	"longitude": "113.9407648"
}, {
	"startDate": "2014-08-22",
	"endDate": "2014-09-21",
	"time": "",
	"name": "【人間中毒】不倫虐戀恥度無限，強烈衝擊媲美《色‧戒》",
	"place": "全省首輪戲院",
	"latitude": "22.9806346",
	"longitude": "113.9407648"
}, {
	"startDate": "2014-08-05",
	"endDate": "2014-08-05",
	"time": "",
	"name": "電商網戰 搶攻兆元商機 座談會",
	"place": "誠品信義店6F視聽室",
	"latitude": "22.661767",
	"longitude": "120.311861"
}, {
	"startDate": "2014-08-30",
	"endDate": "2014-08-30",
	"time": "",
	"name": "《Before & After》優美的舞蹈、動聽的音樂、神奇的魔術與多媒體的視覺刺激",
	"place": "屏東縣藝術館",
	"latitude": "22.677077",
	"longitude": "120.477852"
}, {
	"startDate": "2014-08-06",
	"endDate": "2014-08-06",
	"time": "",
	"name": "霧島節慶管弦樂團",
	"place": "國家音樂廳",
	"latitude": "25.034961",
	"longitude": "121.518003"
}, {
	"startDate": "2013-11-28",
	"endDate": "2014-11-30",
	"time": "",
	"name": "教育訓練特惠行程A",
	"place": "亞太生態園區",
	"latitude": "25.1016667",
	"longitude": "121.3630556"
}, {
	"startDate": "2014-07-25",
	"endDate": "2014-08-24",
	"time": "",
	"name": "【7500鬼航班】日本恐怖大師清水崇新作",
	"place": "全省首輪戲院",
	"latitude": "22.9806346",
	"longitude": "113.9407648"
}, {
	"startDate": "2014-08-02",
	"endDate": "2014-08-02",
	"time": "",
	"name": "小京都七夕浪漫遊",
	"place": "北投文物館",
	"latitude": "25.138127",
	"longitude": "121.514714"
}, {
	"startDate": "2014-06-25",
	"endDate": "2014-10-31",
	"time": "",
	"name": "淡水緣道觀音廟致贈考生「金科寫對筆」　開智慧祈考運　預祝金榜題名",
	"place": "緣道觀音廟",
	"latitude": "25.213482",
	"longitude": "121.489249"
}, {
	"startDate": "2014-06-29",
	"endDate": "2014-06-29",
	"time": "",
	"name": "桃園藝術下鄉計畫 2014",
	"place": "桃園市陽明公園管理中心",
	"latitude": "24",
	"longitude": "121"
}, {
	"startDate": "2014-10-04",
	"endDate": "2014-10-04",
	"time": "",
	"name": "第五屆合歡山越野馬拉松",
	"place": "仁愛鄉娜嚕彎",
	"latitude": "24.06243",
	"longitude": "121.167609"
}, {
	"startDate": "2014-11-01",
	"endDate": "2014-11-01",
	"time": "",
	"name": "開廣飛跑盃12小時超級馬拉松賽-高雄",
	"place": "高雄市",
	"latitude": "22.6251075",
	"longitude": "120.3089541"
}, {
	"startDate": "2014-10-24",
	"endDate": "2014-10-24",
	"time": "",
	"name": "馬賽克日常",
	"place": "牯嶺街小劇場1樓實驗劇場",
	"latitude": "25.072481",
	"longitude": "121.520803"
}, {
	"startDate": "2014-08-17",
	"endDate": "2014-08-17",
	"time": "",
	"name": "【日午音樂會56】美聲三部曲",
	"place": "林建生紀念圖書館",
	"latitude": "25.088798",
	"longitude": "121.469471"
}, {
	"startDate": "2014-07-27",
	"endDate": "2014-07-27",
	"time": "",
	"name": "輕音悅聽-米星星與她的好伙伴、嚴梵、梨可辰",
	"place": "迴響音樂藝文展演空間",
	"latitude": "24.170439",
	"longitude": "120.643703"
}, {
	"startDate": "2014-09-06",
	"endDate": "2014-09-06",
	"time": "",
	"name": "臺北藝穗節2014－製造好學生的SOP",
	"place": "華山1914文創園區中2館 果酒禮堂2樓",
	"latitude": "25.0441303",
	"longitude": "121.5293995"
}, {
	"startDate": "2014-07-01",
	"endDate": "2014-08-29",
	"time": "",
	"name": "2014夏令營-我的田園夢-農遊台灣",
	"place": "漢帝學習創新中心",
	"latitude": "25.0269893",
	"longitude": "121.5437059"
}, {
	"startDate": "2014-08-03",
	"endDate": "2014-08-03",
	"time": "",
	"name": "Waiting Area 待轉格樂團│2014.8月",
	"place": "甘樂文創",
	"latitude": "24.9344251",
	"longitude": "121.3725275"
}, {
	"startDate": "2014-09-12",
	"endDate": "2014-10-11",
	"time": "",
	"name": "【渴望】最新驚悚懸疑電影 堪稱男版《告白》",
	"place": "全省首輪戲院",
	"latitude": "22.9806346",
	"longitude": "113.9407648"
}, {
	"startDate": "2014-07-18",
	"endDate": "2014-08-17",
	"time": "",
	"name": "【湯姆在農莊】天才導演札維耶多藍全新驚悚類型新作",
	"place": "全省首輪戲院",
	"latitude": "22.9806346",
	"longitude": "113.9407648"
}, {
	"startDate": "2014-08-08",
	"endDate": "2014-08-08",
	"time": "",
	"name": "深圳交響樂團台灣巡迴表演 2014 大型儒家文化交響曲《人文頌》",
	"place": "國立國父紀念館",
	"latitude": "25.040054",
	"longitude": "121.560039"
}, {
	"startDate": "2014-10-10",
	"endDate": "2014-10-10",
	"time": "",
	"name": "昌益國慶英雄漫跑2014 Supe2 RUN",
	"place": "新竹縣政府前廣場",
	"latitude": "24.8276186",
	"longitude": "121.0083439"
}, {
	"startDate": "2014-07-02",
	"endDate": "2014-08-16",
	"time": "",
	"name": "大稻埕戲苑 歡慶臺北城130歲",
	"place": "大稻埕戲苑簡報室",
	"latitude": "25.016661",
	"longitude": "121.193862"
}, {
	"startDate": "2014-08-02",
	"endDate": "2014-08-02",
	"time": "",
	"name": "金智娟演唱會 2014 All we need is LOVE",
	"place": "Legacy Taipei 傳 音樂展演空間",
	"latitude": "25.043604",
	"longitude": "121.52906"
}, {
	"startDate": "2014-09-12",
	"endDate": "2014-09-15",
	"time": "",
	"name": "臺南國際生技綠能展2014",
	"place": "南紡世貿展覽中心 ",
	"latitude": "22.9644731",
	"longitude": "120.255129"
}, {
	"startDate": "2014-03-08",
	"endDate": "2014-10-25",
	"time": "",
	"name": "寶寶生日抓周慶典",
	"place": "台北市南京東路五段251巷46弄7號1樓",
	"latitude": "25.053315",
	"longitude": "121.564596"
}, {
	"startDate": "2014-06-03",
	"endDate": "2014-09-30",
	"time": "",
	"name": "102~103年皮紙影偶製作比賽成果展 2014",
	"place": "高雄市政府文化局岡山文化中心",
	"latitude": "22.78402",
	"longitude": "120.299199"
}, {
	"startDate": "2014-07-26",
	"endDate": "2014-07-26",
	"time": "",
	"name": "胖虎punkhoo「反轉未來」亞洲巡迴台灣最終站 2014",
	"place": "The Wall 公館",
	"latitude": "25.0109118",
	"longitude": "121.536655"
}, {
	"startDate": "2014-08-02",
	"endDate": "2014-08-30",
	"time": "",
	"name": "台北愛樂室內樂坊【2014兒童樂園】經典童話故事《青蛙王子》",
	"place": "台北愛樂暨梅哲音樂文化館",
	"latitude": "25.042724",
	"longitude": "121.521926"
}, {
	"startDate": "2014-07-26",
	"endDate": "2014-07-26",
	"time": "",
	"name": "Wish Power圓夢課程 - 圓夢關鍵術",
	"place": "五南文化廣場台中總店",
	"latitude": "24.1373213",
	"longitude": "120.6841096"
}, {
	"startDate": "2014-08-26",
	"endDate": "2014-09-09",
	"time": "",
	"name": "翻轉你的聲音－廣告配音入門班",
	"place": "學學文創志業大樓",
	"latitude": "25.07819",
	"longitude": "121.56658"
}, {
	"startDate": "2014-01-01",
	"endDate": "2014-12-31",
	"time": "",
	"name": "第四屆噶瑪蘭 島田莊司推理小說獎",
	"place": "金車文藝中心台北館",
	"latitude": "25.052287",
	"longitude": "121.527956"
}, {
	"startDate": "2014-10-07",
	"endDate": "2014-10-07",
	"time": "",
	"name": "【逃跑計劃台北專場演唱會】",
	"place": "Legacy Taipei 傳 音樂展演空間",
	"latitude": "25.043604",
	"longitude": "121.52906"
}, {
	"startDate": "2011-04-16",
	"endDate": "2016-01-01",
	"time": "",
	"name": "【科學工藝博物館】電信@臺灣",
	"place": "國立科學工藝博物館",
	"latitude": "22.640138",
	"longitude": "120.322579"
}, {
	"startDate": "2014-07-26",
	"endDate": "2014-07-26",
	"time": "",
	"name": "府城講壇 2014 文學新視界",
	"place": "國立台灣文學館",
	"latitude": "22.992274",
	"longitude": "120.204581"
}, {
	"startDate": "2014-05-17",
	"endDate": "2014-09-30",
	"time": "",
	"name": "達悟族瑞士返航文物特展-感恩心、一世情",
	"place": "國立台灣史前文化博物館",
	"latitude": "24",
	"longitude": "121"
}, {
	"startDate": "2014-08-30",
	"endDate": "2014-10-18",
	"time": "",
	"name": "我的色鉛筆日記 （假日班）",
	"place": "學學文創志業大樓",
	"latitude": "25.07819",
	"longitude": "121.56658"
}, {
	"startDate": "2014-08-22",
	"endDate": "2014-08-22",
	"time": "",
	"name": "如果兒童劇團《當王子遇見青蛙兒童音樂會》",
	"place": "臺北市政大樓親子劇場",
	"latitude": "25.031705",
	"longitude": "121.544523"
}, {
	"startDate": "2014-07-26",
	"endDate": "2014-07-26",
	"time": "",
	"name": "吉他詩人董運昌音樂會 2014",
	"place": "93巷人文空間93巷人文空間",
	"latitude": "25.0505726",
	"longitude": "121.533601"
}, {
	"startDate": "2014-04-23",
	"endDate": "2014-09-24",
	"time": "",
	"name": "讓城市更野 × 食農教學與野地體驗學習營",
	"place": "臺北市內湖區白石湖社區臺北市內湖區白石湖社區",
	"latitude": "25.099171",
	"longitude": "121.587111"
}, {
	"startDate": "2014-08-09",
	"endDate": "2014-08-09",
	"time": "",
	"name": "ENCORE！安可樂團│2014.8月",
	"place": "甘樂文創",
	"latitude": "24.9344251",
	"longitude": "121.3725275"
}, {
	"startDate": "2014-08-02",
	"endDate": "2014-08-02",
	"time": "",
	"name": "第四屆屏東縣牡丹鄉野薑花季路跑賽",
	"place": "牡丹鄉東源村集會所",
	"latitude": "22.126172",
	"longitude": "120.774286"
}, {
	"startDate": "2014-09-10",
	"endDate": "2014-09-10",
	"time": "",
	"name": "臺北藝穗節2014《三岔口》",
	"place": "華山1914文創園區 果酒大樓2樓",
	"latitude": "25.0441303",
	"longitude": "121.5293995"
}, {
	"startDate": "2014-07-12",
	"endDate": "2014-07-12",
	"time": "",
	"name": "《刪海經》紀錄片特映會",
	"place": "高雄市電影館",
	"latitude": "22.622671",
	"longitude": "120.289122"
}, {
	"startDate": "2014-05-29",
	"endDate": "2014-09-21",
	"time": "",
	"name": "楊景堯個展2014 字跡．言靈",
	"place": "聖約翰科技大學何兆豐數位藝文中心",
	"latitude": "25.22723",
	"longitude": "121.451337"
}, {
	"startDate": "2014-07-29",
	"endDate": "2014-09-21",
	"time": "",
	"name": "張書瑋 侯連秦創作展 2014 生活的溫度雕塑展",
	"place": "聖約翰科技大學何兆豐數位藝文中心",
	"latitude": "25.22723",
	"longitude": "121.451337"
}, {
	"startDate": "2014-07-27",
	"endDate": "2014-07-27",
	"time": "",
	"name": "竹塹國樂節2014「最炫民族風」音樂會",
	"place": "新竹市文化局演藝廳",
	"latitude": "24.81738",
	"longitude": "120.964095"
}, {
	"startDate": "2014-11-08",
	"endDate": "2014-11-08",
	"time": "",
	"name": "2014環跑大台北一圈GPS認證賽",
	"place": "大佳河濱公園",
	"latitude": "25.0644067",
	"longitude": "121.5335659"
}, {
	"startDate": "2014-05-31",
	"endDate": "2014-09-07",
	"time": "",
	"name": "典藏奇遇記：藝享天開詩與樂",
	"place": "高雄市立美術館",
	"latitude": "22.656355",
	"longitude": "120.286546"
}, {
	"startDate": "2014-07-28",
	"endDate": "2014-08-11",
	"time": "",
	"name": "品牌設計 策略進階",
	"place": "學學文創志業大樓",
	"latitude": "25.07819",
	"longitude": "121.56658"
}, {
	"startDate": "2014-09-03",
	"endDate": "2014-09-03",
	"time": "",
	"name": "台灣首創【爆米花輕鬆劇場】楊景翔演劇團--青春萌少女生死鬥《蘿莉少女》",
	"place": "新光三越台北信義新天地A11 6F文化館",
	"latitude": "25.0360141",
	"longitude": "121.5672349"
}, {
	"startDate": "2014-09-20",
	"endDate": "2014-09-20",
	"time": "",
	"name": "【TCO】親子闔家歡系列《都會女聲─TCO 103流行音樂演唱會》",
	"place": "台北國際會議中心大會堂",
	"latitude": "25.0287024",
	"longitude": "121.5769572"
},